{
"driveData":[
{"time": "1208022","gpsData":"$GPRMC,061155.000,A,3725.8363,N,12211.0498,W,0.00,163.65,240413,,,D*71","accelData":"-0.01","speedData":"0"},
{"time": "1208423","gpsData":"$GPRMC,061155.400,A,3725.8363,N,12211.0498,W,0.00,163.65,240413,,,D*75","accelData":"0.01","speedData":"0"},
{"time": "1208824","gpsData":"$GPRMC,061155.800,A,3725.8363,N,12211.0498,W,0.00,163.65,240413,,,D*79","accelData":"0.01","speedData":"0"},
{"time": "1209225","gpsData":"$GPRMC,061156.200,A,3725.8363,N,12211.0498,W,0.00,163.65,240413,,,D*70","accelData":"0.04","speedData":"0"},
{"time": "1209622","gpsData":"$GPRMC,061156.600,A,3725.8363,N,12211.0498,W,0.00,163.65,240413,,,D*74","accelData":"0.09","speedData":"0"},
{"time": "1210022","gpsData":"$GPRMC,061157.000,A,3725.8363,N,12211.0498,W,0.02,163.65,240413,,,D*71","accelData":"0.06","speedData":"0"},
{"time": "1210420","gpsData":"$GPRMC,061157.400,A,3725.8363,N,12211.0498,W,0.03,163.65,240413,,,D*74","accelData":"0.06","speedData":"3"},
{"time": "1210821","gpsData":"$GPRMC,061157.800,A,3725.8363,N,12211.0498,W,0.12,163.65,240413,,,D*78","accelData":"0.05","speedData":"3"},
{"time": "1211222","gpsData":"$GPRMC,061158.200,A,3725.8363,N,12211.0499,W,0.00,163.65,240413,,,D*7F","accelData":"0.05","speedData":"3"},
{"time": "1211623","gpsData":"$GPRMC,061158.600,A,3725.8363,N,12211.0499,W,0.00,163.65,240413,,,D*7B","accelData":"0.02","speedData":"5"},
{"time": "1212024","gpsData":"$GPRMC,061159.000,A,3725.8363,N,12211.0499,W,0.00,163.65,240413,,,D*7C","accelData":"0.03","speedData":"5"},
{"time": "1212422","gpsData":"$GPRMC,061159.400,A,3725.8363,N,12211.0499,W,0.00,163.65,240413,,,D*78","accelData":"0.06","speedData":"7"},
{"time": "1212818","gpsData":"$GPRMC,061159.800,A,3725.8363,N,12211.0499,W,0.00,163.65,240413,,,D*74","accelData":"0.07","speedData":"7"},
{"time": "1213219","gpsData":"$GPRMC,061200.200,A,3725.8363,N,12211.0499,W,0.00,163.65,240413,,,D*71","accelData":"0.07","speedData":"7"},
{"time": "1213621","gpsData":"$GPRMC,061200.600,A,3725.8363,N,12211.0499,W,0.00,163.65,240413,,,D*75","accelData":"0.07","speedData":"7"},
{"time": "1214017","gpsData":"$GPRMC,061201.000,A,3725.8363,N,12211.0499,W,0.00,163.65,240413,,,D*72","accelData":"0.08","speedData":"10"},
{"time": "1214418","gpsData":"$GPRMC,061201.400,A,3725.8363,N,12211.0499,W,0.00,163.65,240413,,,D*76","accelData":"0.09","speedData":"12"},
{"time": "1214820","gpsData":"$GPRMC,061201.800,A,3725.8363,N,12211.0499,W,0.00,163.65,240413,,,D*7A","accelData":"0.10","speedData":"12"},
{"time": "1215221","gpsData":"$GPRMC,061202.200,A,3725.8364,N,12211.0506,W,0.00,273.93,240413,,,D*78","accelData":"0.08","speedData":"14"},
{"time": "1215618","gpsData":"$GPRMC,061202.600,A,3725.8364,N,12211.0516,W,3.15,272.66,240413,,,D*71","accelData":"0.07","speedData":"14"},
{"time": "1216019","gpsData":"$GPRMC,061203.000,A,3725.8366,N,12211.0523,W,4.15,278.46,240413,,,D*7D","accelData":"0.07","speedData":"14"},
{"time": "1216420","gpsData":"$GPRMC,061203.400,A,3725.8370,N,12211.0534,W,6.29,281.88,240413,,,D*71","accelData":"0.08","speedData":"16"},
{"time": "1216820","gpsData":"$GPRMC,061203.800,A,3725.8372,N,12211.0548,W,7.90,279.73,240413,,,D*74","accelData":"0.11","speedData":"19"},
{"time": "1217218","gpsData":"$GPRMC,061204.200,A,3725.8372,N,12211.0567,W,10.24,275.54,240413,,,D*44","accelData":"0.11","speedData":"22"},
{"time": "1217619","gpsData":"$GPRMC,061204.600,A,3725.8372,N,12211.0585,W,11.41,274.34,240413,,,D*49","accelData":"0.10","speedData":"24"},
{"time": "1218019","gpsData":"$GPRMC,061205.000,A,3725.8375,N,12211.0605,W,12.83,275.26,240413,,,D*4D","accelData":"0.09","speedData":"26"},
{"time": "1218417","gpsData":"$GPRMC,061205.400,A,3725.8379,N,12211.0626,W,14.06,278.02,240413,,,D*44","accelData":"0.07","speedData":"28"},
{"time": "1218819","gpsData":"$GPRMC,061205.800,A,3725.8383,N,12211.0648,W,14.89,280.46,240413,,,D*45","accelData":"0.07","speedData":"28"},
{"time": "1219220","gpsData":"$GPRMC,061206.200,A,3725.8390,N,12211.0671,W,15.89,283.34,240413,,,D*43","accelData":"0.07","speedData":"30"},
{"time": "1219619","gpsData":"$GPRMC,061206.600,A,3725.8397,N,12211.0696,W,16.71,285.06,240413,,,D*4A","accelData":"0.07","speedData":"31"},
{"time": "1220018","gpsData":"$GPRMC,061207.000,A,3725.8404,N,12211.0720,W,17.55,287.35,240413,,,D*49","accelData":"0.07","speedData":"32"},
{"time": "1220419","gpsData":"$GPRMC,061207.400,A,3725.8414,N,12211.0745,W,18.37,289.40,240413,,,D*48","accelData":"0.01","speedData":"34"},
{"time": "1220818","gpsData":"$GPRMC,061207.800,A,3725.8424,N,12211.0771,W,18.90,290.90,240413,,,D*48","accelData":"-0.03","speedData":"35"},
{"time": "1221221","gpsData":"$GPRMC,061208.200,A,3725.8434,N,12211.0795,W,18.96,292.21,240413,,,D*48","accelData":"-0.04","speedData":"36"},
{"time": "1221622","gpsData":"$GPRMC,061208.600,A,3725.8444,N,12211.0821,W,19.28,293.61,240413,,,D*4A","accelData":"-0.05","speedData":"36"},
{"time": "1222020","gpsData":"$GPRMC,061209.000,A,3725.8457,N,12211.0845,W,19.47,295.98,240413,,,D*44","accelData":"-0.04","speedData":"35"},
{"time": "1222420","gpsData":"$GPRMC,061209.400,A,3725.8471,N,12211.0868,W,19.28,299.02,240413,,,D*4D","accelData":"-0.05","speedData":"35"},
{"time": "1222817","gpsData":"$GPRMC,061209.800,A,3725.8484,N,12211.0891,W,19.23,300.93,240413,,,D*4F","accelData":"-0.05","speedData":"34"},
{"time": "1223219","gpsData":"$GPRMC,061210.200,A,3725.8499,N,12211.0912,W,18.95,304.61,240413,,,D*4E","accelData":"-0.05","speedData":"34"},
{"time": "1223615","gpsData":"$GPRMC,061210.600,A,3725.8514,N,12211.0932,W,18.51,307.67,240413,,,D*41","accelData":"-0.06","speedData":"34"},
{"time": "1224024","gpsData":"$GPRMC,061211.000,A,3725.8529,N,12211.0951,W,18.41,309.89,240413,,,D*42","accelData":"-0.05","speedData":"34"},
{"time": "1224422","gpsData":"$GPRMC,061211.400,A,3725.8544,N,12211.0971,W,18.35,311.03,240413,,,D*47","accelData":"-0.07","speedData":"33"},
{"time": "1224819","gpsData":"$GPRMC,061211.800,A,3725.8558,N,12211.0989,W,18.27,312.17,240413,,,D*44","accelData":"-0.05","speedData":"33"},
{"time": "1225216","gpsData":"$GPRMC,061212.200,A,3725.8573,N,12211.1007,W,17.99,314.04,240413,,,D*44","accelData":"-0.04","speedData":"33"},
{"time": "1225617","gpsData":"$GPRMC,061212.600,A,3725.8588,N,12211.1024,W,17.77,315.29,240413,,,D*4B","accelData":"-0.04","speedData":"33"},
{"time": "1226018","gpsData":"$GPRMC,061213.000,A,3725.8603,N,12211.1039,W,17.53,317.32,240413,,,D*4E","accelData":"-0.04","speedData":"33"},
{"time": "1226415","gpsData":"$GPRMC,061213.400,A,3725.8619,N,12211.1054,W,17.25,319.27,240413,,,D*41","accelData":"-0.04","speedData":"32"},
{"time": "1226816","gpsData":"$GPRMC,061213.800,A,3725.8639,N,12211.1069,W,17.16,321.14,240413,,,D*4A","accelData":"-0.05","speedData":"32"},
{"time": "1227222","gpsData":"$GPRMC,061214.200,A,3725.8660,N,12211.1082,W,16.89,324.13,240413,,,D*4B","accelData":"-0.03","speedData":"32"},
{"time": "1227615","gpsData":"$GPRMC,061214.600,A,3725.8678,N,12211.1093,W,16.68,327.04,240413,,,D*4C","accelData":"-0.02","speedData":"31"},
{"time": "1228015","gpsData":"$GPRMC,061215.000,A,3725.8698,N,12211.1102,W,16.42,329.99,240413,,,D*4E","accelData":"0.01","speedData":"31"},
{"time": "1228417","gpsData":"$GPRMC,061215.400,A,3725.8720,N,12211.1109,W,16.42,334.30,240413,,,D*4C","accelData":"0.02","speedData":"33"},
{"time": "1228814","gpsData":"$GPRMC,061215.800,A,3725.8741,N,12211.1118,W,16.75,336.43,240413,,,D*45","accelData":"0.02","speedData":"33"},
{"time": "1229214","gpsData":"$GPRMC,061216.200,A,3725.8763,N,12211.1126,W,17.52,338.97,240413,,,D*42","accelData":"0.00","speedData":"33"},
{"time": "1229616","gpsData":"$GPRMC,061216.600,A,3725.8785,N,12211.1132,W,17.99,341.49,240413,,,D*41","accelData":"-0.02","speedData":"35"},
{"time": "1230017","gpsData":"$GPRMC,061217.000,A,3725.8812,N,12211.1133,W,18.87,345.05,240413,,,D*4A","accelData":"-0.05","speedData":"35"},
{"time": "1230413","gpsData":"$GPRMC,061217.400,A,3725.8836,N,12211.1137,W,19.26,346.71,240413,,,D*46","accelData":"-0.05","speedData":"34"},
{"time": "1230816","gpsData":"$GPRMC,061217.800,A,3725.8859,N,12211.1142,W,19.40,347.05,240413,,,D*43","accelData":"-0.08","speedData":"34"},
{"time": "1231212","gpsData":"$GPRMC,061218.200,A,3725.8880,N,12211.1148,W,19.42,346.71,240413,,,D*48","accelData":"-0.10","speedData":"34"},
{"time": "1231613","gpsData":"$GPRMC,061218.600,A,3725.8902,N,12211.1154,W,19.20,345.85,240413,,,D*46","accelData":"-0.11","speedData":"33"},
{"time": "1232014","gpsData":"$GPRMC,061219.000,A,3725.8922,N,12211.1161,W,18.97,344.50,240413,,,D*41","accelData":"-0.11","speedData":"33"},
{"time": "1232415","gpsData":"$GPRMC,061219.400,A,3725.8941,N,12211.1170,W,18.63,342.20,240413,,,D*4A","accelData":"-0.12","speedData":"33"},
{"time": "1232817","gpsData":"$GPRMC,061219.800,A,3725.8960,N,12211.1178,W,18.19,340.72,240413,,,D*45","accelData":"-0.12","speedData":"32"},
{"time": "1233218","gpsData":"$GPRMC,061220.200,A,3725.8979,N,12211.1188,W,17.98,339.50,240413,,,D*4A","accelData":"-0.14","speedData":"31"},
{"time": "1233614","gpsData":"$GPRMC,061220.600,A,3725.8997,N,12211.1198,W,17.72,338.28,240413,,,D*45","accelData":"-0.12","speedData":"29"},
{"time": "1234014","gpsData":"$GPRMC,061221.000,A,3725.9013,N,12211.1208,W,16.94,335.95,240413,,,D*4E","accelData":"-0.12","speedData":"28"},
{"time": "1234412","gpsData":"$GPRMC,061221.400,A,3725.9034,N,12211.1219,W,16.42,333.44,240413,,,D*4E","accelData":"-0.14","speedData":"26"},
{"time": "1234814","gpsData":"$GPRMC,061221.800,A,3725.9053,N,12211.1230,W,16.17,332.39,240413,,,D*43","accelData":"-0.14","speedData":"26"},
{"time": "1235211","gpsData":"$GPRMC,061222.200,A,3725.9068,N,12211.1244,W,15.89,331.07,240413,,,D*4B","accelData":"-0.17","speedData":"25"},
{"time": "1235612","gpsData":"$GPRMC,061222.600,A,3725.9082,N,12211.1256,W,15.38,330.13,240413,,,D*46","accelData":"-0.17","speedData":"24"},
{"time": "1236013","gpsData":"$GPRMC,061223.000,A,3725.9093,N,12211.1267,W,14.60,329.24,240413,,,D*43","accelData":"-0.18","speedData":"22"},
{"time": "1236410","gpsData":"$GPRMC,061223.400,A,3725.9102,N,12211.1276,W,13.53,328.87,240413,,,D*41","accelData":"-0.18","speedData":"20"},
{"time": "1236811","gpsData":"$GPRMC,061223.800,A,3725.9111,N,12211.1285,W,12.67,329.15,240413,,,D*4F","accelData":"-0.18","speedData":"18"},
{"time": "1237212","gpsData":"$GPRMC,061224.200,A,3725.9121,N,12211.1294,W,11.96,328.17,240413,,,D*4F","accelData":"-0.18","speedData":"18"},
{"time": "1237612","gpsData":"$GPRMC,061224.600,A,3725.9130,N,12211.1302,W,11.45,328.00,240413,,,D*4D","accelData":"-0.15","speedData":"16"},
{"time": "1238010","gpsData":"$GPRMC,061225.000,A,3725.9139,N,12211.1309,W,10.91,328.63,240413,,,D*45","accelData":"-0.10","speedData":"13"},
{"time": "1238412","gpsData":"$GPRMC,061225.400,A,3725.9148,N,12211.1314,W,10.02,327.90,240413,,,D*42","accelData":"-0.06","speedData":"11"},
{"time": "1238808","gpsData":"$GPRMC,061225.800,A,3725.9156,N,12211.1317,W,9.39,329.97,240413,,,D*7B","accelData":"-0.05","speedData":"10"},
{"time": "1239214","gpsData":"$GPRMC,061226.200,A,3725.9164,N,12211.1321,W,8.90,331.71,240413,,,D*75","accelData":"-0.01","speedData":"10"},
{"time": "1239611","gpsData":"$GPRMC,061226.600,A,3725.9171,N,12211.1323,W,8.37,334.60,240413,,,D*7F","accelData":"0.06","speedData":"12"},
{"time": "1240007","gpsData":"$GPRMC,061227.000,A,3725.9179,N,12211.1325,W,7.93,337.98,240413,,,D*73","accelData":"0.07","speedData":"12"},
{"time": "1240409","gpsData":"$GPRMC,061227.400,A,3725.9186,N,12211.1325,W,7.71,343.21,240413,,,D*7A","accelData":"0.08","speedData":"14"},
{"time": "1240810","gpsData":"$GPRMC,061227.800,A,3725.9185,N,12211.1326,W,7.92,348.88,240413,,,D*73","accelData":"0.06","speedData":"14"},
{"time": "1241206","gpsData":"$GPRMC,061228.200,A,3725.9185,N,12211.1325,W,8.64,353.21,240413,,,D*7A","accelData":"0.09","speedData":"16"},
{"time": "1241608","gpsData":"$GPRMC,061228.600,A,3725.9193,N,12211.1326,W,9.36,356.47,240413,,,D*79","accelData":"0.08","speedData":"19"},
{"time": "1242009","gpsData":"$GPRMC,061229.000,A,3725.9204,N,12211.1326,W,9.65,0.97,240413,,,D*78","accelData":"0.11","speedData":"21"},
{"time": "1242411","gpsData":"$GPRMC,061229.400,A,3725.9213,N,12211.1322,W,10.14,9.49,240413,,,D*4A","accelData":"0.12","speedData":"23"},
{"time": "1242811","gpsData":"$GPRMC,061229.800,A,3725.9227,N,12211.1315,W,11.26,16.88,240413,,,D*76","accelData":"0.11","speedData":"23"},
{"time": "1243208","gpsData":"$GPRMC,061230.200,A,3725.9241,N,12211.1311,W,12.31,24.75,240413,,,D*76","accelData":"0.12","speedData":"25"},
{"time": "1243607","gpsData":"$GPRMC,061230.600,A,3725.9257,N,12211.1306,W,13.49,30.13,240413,,,D*78","accelData":"0.11","speedData":"28"},
{"time": "1244011","gpsData":"$GPRMC,061231.000,A,3725.9273,N,12211.1296,W,14.68,34.51,240413,,,D*77","accelData":"0.11","speedData":"30"},
{"time": "1244407","gpsData":"$GPRMC,061231.400,A,3725.9288,N,12211.1281,W,15.79,38.33,240413,,,D*78","accelData":"0.10","speedData":"32"},
{"time": "1244805","gpsData":"$GPRMC,061231.800,A,3725.9300,N,12211.1262,W,16.85,43.50,240413,,,D*71","accelData":"0.08","speedData":"34"},
{"time": "1245214","gpsData":"$GPRMC,061232.200,A,3725.9313,N,12211.1241,W,17.95,46.84,240413,,,D*77","accelData":"0.08","speedData":"34"},
{"time": "1245606","gpsData":"$GPRMC,061232.600,A,3725.9328,N,12211.1220,W,18.97,46.79,240413,,,D*73","accelData":"0.10","speedData":"36"},
{"time": "1246009","gpsData":"$GPRMC,061233.000,A,3725.9345,N,12211.1198,W,20.21,46.59,240413,,,D*7B","accelData":"0.08","speedData":"39"},
{"time": "1246405","gpsData":"$GPRMC,061233.400,A,3725.9360,N,12211.1176,W,20.94,46.90,240413,,,D*73","accelData":"0.05","speedData":"39"},
{"time": "1246806","gpsData":"$GPRMC,061233.800,A,3725.9377,N,12211.1153,W,21.98,46.60,240413,,,D*7C","accelData":"0.03","speedData":"41"},
{"time": "1247206","gpsData":"$GPRMC,061234.200,A,3725.9395,N,12211.1129,W,22.80,46.42,240413,,,D*7A","accelData":"-0.01","speedData":"41"},
{"time": "1247608","gpsData":"$GPRMC,061234.600,A,3725.9412,N,12211.1105,W,23.44,46.50,240413,,,D*72","accelData":"0.01","speedData":"43"},
{"time": "1248005","gpsData":"$GPRMC,061235.000,A,3725.9430,N,12211.1081,W,23.73,46.47,240413,,,D*7A","accelData":"-0.01","speedData":"43"},
{"time": "1248406","gpsData":"$GPRMC,061235.400,A,3725.9448,N,12211.1057,W,23.73,45.97,240413,,,D*74","accelData":"-0.02","speedData":"43"},
{"time": "1248803","gpsData":"$GPRMC,061235.800,A,3725.9466,N,12211.1032,W,23.66,45.81,240413,,,D*74","accelData":"-0.01","speedData":"43"},
{"time": "1249205","gpsData":"$GPRMC,061236.200,A,3725.9484,N,12211.1008,W,23.62,45.26,240413,,,D*71","accelData":"0.01","speedData":"45"},
{"time": "1249605","gpsData":"$GPRMC,061236.600,A,3725.9503,N,12211.0983,W,23.93,45.57,240413,,,D*78","accelData":"0.01","speedData":"45"},
{"time": "1250007","gpsData":"$GPRMC,061237.000,A,3725.9521,N,12211.0957,W,24.23,45.85,240413,,,D*75","accelData":"0.01","speedData":"45"},
{"time": "1250404","gpsData":"$GPRMC,061237.400,A,3725.9540,N,12211.0930,W,24.64,46.45,240413,,,D*7B","accelData":"0.01","speedData":"47"},
{"time": "1250805","gpsData":"$GPRMC,061237.800,A,3725.9558,N,12211.0903,W,24.92,46.80,240413,,,D*7E","accelData":"0.01","speedData":"47"},
{"time": "1251207","gpsData":"$GPRMC,061238.200,A,3725.9577,N,12211.0875,W,25.33,46.93,240413,,,D*7E","accelData":"-0.02","speedData":"47"},
{"time": "1251604","gpsData":"$GPRMC,061238.600,A,3725.9596,N,12211.0848,W,25.79,47.17,240413,,,D*78","accelData":"-0.02","speedData":"47"},
{"time": "1252004","gpsData":"$GPRMC,061239.000,A,3725.9616,N,12211.0819,W,26.17,47.34,240413,,,D*7A","accelData":"-0.01","speedData":"47"},
{"time": "1252405","gpsData":"$GPRMC,061239.400,A,3725.9635,N,12211.0791,W,26.40,47.47,240413,,,D*76","accelData":"-0.02","speedData":"47"},
{"time": "1252802","gpsData":"$GPRMC,061239.800,A,3725.9655,N,12211.0762,W,26.79,47.48,240413,,,D*75","accelData":"-0.02","speedData":"47"},
{"time": "1253203","gpsData":"$GPRMC,061240.200,A,3725.9675,N,12211.0734,W,26.97,47.39,240413,,,D*76","accelData":"-0.04","speedData":"47"},
{"time": "1253604","gpsData":"$GPRMC,061240.600,A,3725.9695,N,12211.0705,W,26.99,47.06,240413,,,D*7C","accelData":"-0.03","speedData":"49"},
{"time": "1254006","gpsData":"$GPRMC,061241.000,A,3725.9716,N,12211.0677,W,27.27,46.46,240413,,,D*74","accelData":"-0.04","speedData":"49"},
{"time": "1254403","gpsData":"$GPRMC,061241.400,A,3725.9736,N,12211.0648,W,27.33,46.54,240413,,,D*78","accelData":"-0.03","speedData":"49"},
{"time": "1254803","gpsData":"$GPRMC,061241.800,A,3725.9756,N,12211.0619,W,27.28,47.39,240413,,,D*76","accelData":"-0.04","speedData":"49"},
{"time": "1255205","gpsData":"$GPRMC,061242.200,A,3725.9776,N,12211.0589,W,27.61,47.98,240413,,,D*71","accelData":"-0.04","speedData":"49"},
{"time": "1255606","gpsData":"$GPRMC,061242.600,A,3725.9796,N,12211.0559,W,27.54,48.06,240413,,,D*78","accelData":"-0.02","speedData":"49"},
{"time": "1256003","gpsData":"$GPRMC,061243.000,A,3725.9816,N,12211.0530,W,27.60,48.00,240413,,,D*76","accelData":"-0.03","speedData":"49"},
{"time": "1256403","gpsData":"$GPRMC,061243.400,A,3725.9835,N,12211.0499,W,27.56,48.63,240413,,,D*71","accelData":"-0.02","speedData":"49"},
{"time": "1256805","gpsData":"$GPRMC,061243.800,A,3725.9854,N,12211.0469,W,27.57,48.65,240413,,,D*72","accelData":"-0.03","speedData":"49"},
{"time": "1257206","gpsData":"$GPRMC,061244.200,A,3725.9873,N,12211.0438,W,27.79,48.87,240413,,,D*7E","accelData":"-0.04","speedData":"49"},
{"time": "1257603","gpsData":"$GPRMC,061244.600,A,3725.9893,N,12211.0408,W,27.84,48.75,240413,,,D*78","accelData":"-0.03","speedData":"49"},
{"time": "1258000","gpsData":"$GPRMC,061245.000,A,3725.9914,N,12211.0378,W,27.88,48.44,240413,,,D*7F","accelData":"-0.02","speedData":"51"},
{"time": "1258401","gpsData":"$GPRMC,061245.400,A,3725.9934,N,12211.0348,W,27.90,48.05,240413,,,D*76","accelData":"-0.04","speedData":"51"},
{"time": "1258803","gpsData":"$GPRMC,061245.800,A,3725.9955,N,12211.0319,W,27.91,47.68,240413,,,D*7C","accelData":"-0.04","speedData":"51"},
{"time": "1259203","gpsData":"$GPRMC,061246.200,A,3725.9975,N,12211.0290,W,27.90,47.41,240413,,,D*7D","accelData":"-0.05","speedData":"50"},
{"time": "1259600","gpsData":"$GPRMC,061246.600,A,3725.9996,N,12211.0260,W,27.86,47.51,240413,,,D*7D","accelData":"-0.06","speedData":"49"},
{"time": "1260002","gpsData":"$GPRMC,061247.000,A,3726.0016,N,12211.0232,W,26.91,47.24,240413,,,D*73","accelData":"-0.07","speedData":"49"},
{"time": "1260402","gpsData":"$GPRMC,061247.400,A,3726.0036,N,12211.0202,W,26.78,48.10,240413,,,D*79","accelData":"-0.07","speedData":"49"},
{"time": "1260800","gpsData":"$GPRMC,061247.800,A,3726.0055,N,12211.0173,W,26.47,48.16,240413,,,D*7F","accelData":"-0.07","speedData":"47"},
{"time": "1261201","gpsData":"$GPRMC,061248.200,A,3726.0075,N,12211.0145,W,26.39,48.80,240413,,,D*7B","accelData":"-0.06","speedData":"47"},
{"time": "1261602","gpsData":"$GPRMC,061248.600,A,3726.0094,N,12211.0117,W,26.14,48.64,240413,,,D*72","accelData":"-0.06","speedData":"47"},
{"time": "1262003","gpsData":"$GPRMC,061249.000,A,3726.0112,N,12211.0089,W,25.94,48.75,240413,,,D*77","accelData":"-0.07","speedData":"46"},
{"time": "1262400","gpsData":"$GPRMC,061249.400,A,3726.0131,N,12211.0062,W,25.66,48.42,240413,,,D*7E","accelData":"-0.05","speedData":"45"},
{"time": "1262801","gpsData":"$GPRMC,061249.800,A,3726.0149,N,12211.0035,W,25.51,48.26,240413,,,D*79","accelData":"-0.06","speedData":"45"},
{"time": "1263209","gpsData":"$GPRMC,061250.200,A,3726.0167,N,12211.0009,W,25.41,48.01,240413,,,D*7C","accelData":"-0.06","speedData":"45"},
{"time": "1263603","gpsData":"$GPRMC,061250.600,A,3726.0185,N,12210.9983,W,25.13,47.53,240413,,,D*78","accelData":"-0.07","speedData":"44"},
{"time": "1264001","gpsData":"$GPRMC,061251.000,A,3726.0202,N,12210.9956,W,24.67,48.07,240413,,,D*77","accelData":"-0.06","speedData":"44"},
{"time": "1264401","gpsData":"$GPRMC,061251.400,A,3726.0219,N,12210.9930,W,24.61,47.84,240413,,,D*7B","accelData":"-0.06","speedData":"44"},
{"time": "1264798","gpsData":"$GPRMC,061251.800,A,3726.0237,N,12210.9904,W,24.40,47.48,240413,,,D*7F","accelData":"-0.05","speedData":"43"},
{"time": "1265200","gpsData":"$GPRMC,061252.200,A,3726.0255,N,12210.9880,W,24.16,47.25,240413,,,D*77","accelData":"-0.05","speedData":"42"},
{"time": "1265601","gpsData":"$GPRMC,061252.600,A,3726.0273,N,12210.9855,W,23.93,47.10,240413,,,D*73","accelData":"-0.05","speedData":"41"},
{"time": "1266001","gpsData":"$GPRMC,061253.000,A,3726.0290,N,12210.9830,W,23.68,47.04,240413,,,D*7B","accelData":"-0.07","speedData":"41"},
{"time": "1266403","gpsData":"$GPRMC,061253.400,A,3726.0307,N,12210.9806,W,23.38,47.05,240413,,,D*71","accelData":"-0.06","speedData":"41"},
{"time": "1266798","gpsData":"$GPRMC,061253.800,A,3726.0324,N,12210.9783,W,23.16,46.87,240413,,,D*79","accelData":"-0.06","speedData":"41"},
{"time": "1267196","gpsData":"$GPRMC,061254.200,A,3726.0341,N,12210.9759,W,23.07,47.34,240413,,,D*79","accelData":"-0.07","speedData":"39"},
{"time": "1267598","gpsData":"$GPRMC,061254.600,A,3726.0357,N,12210.9736,W,23.06,47.65,240413,,,D*76","accelData":"-0.06","speedData":"39"},
{"time": "1267999","gpsData":"$GPRMC,061255.000,A,3726.0374,N,12210.9712,W,23.47,48.05,240413,,,D*7A","accelData":"-0.08","speedData":"39"},
{"time": "1268400","gpsData":"$GPRMC,061255.400,A,3726.0392,N,12210.9689,W,23.68,47.13,240413,,,D*70","accelData":"-0.07","speedData":"38"},
{"time": "1268797","gpsData":"$GPRMC,061255.800,A,3726.0408,N,12210.9665,W,23.30,47.19,240413,,,D*7D","accelData":"-0.07","speedData":"38"},
{"time": "1269202","gpsData":"$GPRMC,061256.200,A,3726.0425,N,12210.9644,W,22.48,46.57,240413,,,D*7D","accelData":"-0.07","speedData":"38"},
{"time": "1269600","gpsData":"$GPRMC,061256.600,A,3726.0440,N,12210.9623,W,21.68,46.50,240413,,,D*7D","accelData":"-0.08","speedData":"37"},
{"time": "1269997","gpsData":"$GPRMC,061257.000,A,3726.0455,N,12210.9603,W,20.83,46.45,240413,,,D*7C","accelData":"-0.07","speedData":"36"},
{"time": "1270397","gpsData":"$GPRMC,061257.400,A,3726.0471,N,12210.9583,W,20.22,46.03,240413,,,D*7C","accelData":"-0.08","speedData":"35"},
{"time": "1270799","gpsData":"$GPRMC,061257.800,A,3726.0486,N,12210.9563,W,19.73,46.22,240413,,,D*7B","accelData":"-0.07","speedData":"35"},
{"time": "1271199","gpsData":"$GPRMC,061258.200,A,3726.0500,N,12210.9542,W,19.32,47.67,240413,,,D*77","accelData":"-0.09","speedData":"35"},
{"time": "1271597","gpsData":"$GPRMC,061258.600,A,3726.0514,N,12210.9523,W,18.88,47.75,240413,,,D*72","accelData":"-0.10","speedData":"33"},
{"time": "1271998","gpsData":"$GPRMC,061259.000,A,3726.0528,N,12210.9504,W,18.22,47.69,240413,,,D*72","accelData":"-0.09","speedData":"33"},
{"time": "1272399","gpsData":"$GPRMC,061259.400,A,3726.0541,N,12210.9486,W,17.74,47.80,240413,,,D*79","accelData":"-0.10","speedData":"33"},
{"time": "1272796","gpsData":"$GPRMC,061259.800,A,3726.0554,N,12210.9468,W,17.43,48.33,240413,,,D*72","accelData":"-0.10","speedData":"32"},
{"time": "1273197","gpsData":"$GPRMC,061300.200,A,3726.0565,N,12210.9451,W,17.09,48.76,240413,,,D*72","accelData":"-0.11","speedData":"31"},
{"time": "1273594","gpsData":"$GPRMC,061300.600,A,3726.0576,N,12210.9435,W,16.86,48.55,240413,,,D*71","accelData":"-0.11","speedData":"29"},
{"time": "1273995","gpsData":"$GPRMC,061301.000,A,3726.0587,N,12210.9419,W,16.21,48.27,240413,,,D*7E","accelData":"-0.12","speedData":"28"},
{"time": "1274396","gpsData":"$GPRMC,061301.400,A,3726.0598,N,12210.9406,W,15.59,47.53,240413,,,D*7A","accelData":"-0.14","speedData":"28"},
{"time": "1274793","gpsData":"$GPRMC,061301.800,A,3726.0609,N,12210.9392,W,15.03,47.45,240413,,,D*7F","accelData":"-0.15","speedData":"26"},
{"time": "1275199","gpsData":"$GPRMC,061302.200,A,3726.0618,N,12210.9379,W,14.36,47.31,240413,,,D*77","accelData":"-0.13","speedData":"25"},
{"time": "1275595","gpsData":"$GPRMC,061302.600,A,3726.0627,N,12210.9366,W,14.00,46.74,240413,,,D*74","accelData":"-0.11","speedData":"23"},
{"time": "1275997","gpsData":"$GPRMC,061303.000,A,3726.0634,N,12210.9354,W,13.18,46.93,240413,,,D*77","accelData":"-0.07","speedData":"22"},
{"time": "1276394","gpsData":"$GPRMC,061303.400,A,3726.0641,N,12210.9341,W,12.59,47.70,240413,,,D*7D","accelData":"-0.04","speedData":"21"},
{"time": "1276794","gpsData":"$GPRMC,061303.800,A,3726.0649,N,12210.9328,W,12.20,48.08,240413,,,D*78","accelData":"-0.04","speedData":"21"},
{"time": "1277196","gpsData":"$GPRMC,061304.200,A,3726.0656,N,12210.9316,W,11.90,48.20,240413,,,D*74","accelData":"0.01","speedData":"21"},
{"time": "1277593","gpsData":"$GPRMC,061304.600,A,3726.0664,N,12210.9303,W,11.89,48.37,240413,,,D*7B","accelData":"0.03","speedData":"21"},
{"time": "1277995","gpsData":"$GPRMC,061305.000,A,3726.0673,N,12210.9290,W,12.61,48.37,240413,,,D*74","accelData":"0.05","speedData":"23"},
{"time": "1278391","gpsData":"$GPRMC,061305.400,A,3726.0683,N,12210.9277,W,13.55,46.72,240413,,,D*7F","accelData":"0.07","speedData":"23"},
{"time": "1278792","gpsData":"$GPRMC,061305.800,A,3726.0693,N,12210.9263,W,14.29,46.80,240413,,,D*76","accelData":"0.08","speedData":"23"},
{"time": "1279196","gpsData":"$GPRMC,061306.200,A,3726.0704,N,12210.9248,W,15.13,47.59,240413,,,D*74","accelData":"0.07","speedData":"26"},
{"time": "1279594","gpsData":"$GPRMC,061306.600,A,3726.0712,N,12210.9233,W,16.00,48.08,240413,,,D*71","accelData":"0.06","speedData":"28"},
{"time": "1279991","gpsData":"$GPRMC,061307.000,A,3726.0724,N,12210.9218,W,16.97,47.96,240413,,,D*7C","accelData":"0.06","speedData":"28"},
{"time": "1280393","gpsData":"$GPRMC,061307.400,A,3726.0737,N,12210.9203,W,17.72,47.81,240413,,,D*7C","accelData":"0.07","speedData":"30"},
{"time": "1280793","gpsData":"$GPRMC,061307.800,A,3726.0751,N,12210.9186,W,18.34,47.55,240413,,,D*7A","accelData":"0.07","speedData":"30"},
{"time": "1281195","gpsData":"$GPRMC,061308.200,A,3726.0766,N,12210.9169,W,18.91,47.50,240413,,,D*70","accelData":"0.09","speedData":"33"},
{"time": "1281592","gpsData":"$GPRMC,061308.600,A,3726.0781,N,12210.9151,W,19.17,47.47,240413,,,D*7F","accelData":"0.06","speedData":"33"},
{"time": "1281993","gpsData":"$GPRMC,061309.000,A,3726.0797,N,12210.9131,W,19.89,47.42,240413,,,D*7B","accelData":"0.06","speedData":"36"},
{"time": "1282394","gpsData":"$GPRMC,061309.400,A,3726.0813,N,12210.9111,W,20.39,47.24,240413,,,D*7F","accelData":"0.06","speedData":"36"},
{"time": "1282791","gpsData":"$GPRMC,061309.800,A,3726.0829,N,12210.9090,W,20.74,47.14,240413,,,D*78","accelData":"0.06","speedData":"38"},
{"time": "1283192","gpsData":"$GPRMC,061310.200,A,3726.0845,N,12210.9068,W,21.30,46.68,240413,,,D*7C","accelData":"0.04","speedData":"38"},
{"time": "1283593","gpsData":"$GPRMC,061310.600,A,3726.0862,N,12210.9046,W,21.68,46.24,240413,,,D*74","accelData":"0.03","speedData":"38"},
{"time": "1283994","gpsData":"$GPRMC,061311.000,A,3726.0880,N,12210.9024,W,22.39,45.19,240413,,,D*71","accelData":"0.04","speedData":"40"},
{"time": "1284396","gpsData":"$GPRMC,061311.400,A,3726.0899,N,12210.9001,W,22.98,44.72,240413,,,D*7D","accelData":"0.04","speedData":"42"},
{"time": "1284792","gpsData":"$GPRMC,061311.800,A,3726.0917,N,12210.8979,W,23.20,44.98,240413,,,D*77","accelData":"0.02","speedData":"44"},
{"time": "1285189","gpsData":"$GPRMC,061312.200,A,3726.0935,N,12210.8955,W,23.74,45.16,240413,,,D*76","accelData":"0.02","speedData":"44"},
{"time": "1285591","gpsData":"$GPRMC,061312.600,A,3726.0953,N,12210.8931,W,24.17,45.80,240413,,,D*7D","accelData":"0.01","speedData":"44"},
{"time": "1285992","gpsData":"$GPRMC,061313.000,A,3726.0970,N,12210.8907,W,24.46,46.43,240413,,,D*76","accelData":"-0.01","speedData":"44"},
{"time": "1286391","gpsData":"$GPRMC,061313.400,A,3726.0987,N,12210.8884,W,24.73,46.62,240413,,,D*75","accelData":"-0.02","speedData":"46"},
{"time": "1286790","gpsData":"$GPRMC,061313.800,A,3726.1005,N,12210.8861,W,24.76,46.51,240413,,,D*75","accelData":"-0.02","speedData":"44"},
{"time": "1287195","gpsData":"$GPRMC,061314.200,A,3726.1022,N,12210.8835,W,24.75,47.02,240413,,,D*78","accelData":"-0.02","speedData":"44"},
{"time": "1287591","gpsData":"$GPRMC,061314.600,A,3726.1040,N,12210.8811,W,24.38,47.20,240413,,,D*77","accelData":"-0.02","speedData":"44"},
{"time": "1287989","gpsData":"$GPRMC,061315.000,A,3726.1059,N,12210.8787,W,24.42,46.47,240413,,,D*75","accelData":"-0.03","speedData":"44"},
{"time": "1288390","gpsData":"$GPRMC,061315.400,A,3726.1079,N,12210.8762,W,24.71,46.79,240413,,,D*75","accelData":"-0.03","speedData":"44"},
{"time": "1288791","gpsData":"$GPRMC,061315.800,A,3726.1097,N,12210.8736,W,24.80,46.83,240413,,,D*73","accelData":"-0.02","speedData":"45"},
{"time": "1289188","gpsData":"$GPRMC,061316.200,A,3726.1117,N,12210.8710,W,25.12,46.47,240413,,,D*75","accelData":"-0.04","speedData":"46"},
{"time": "1289589","gpsData":"$GPRMC,061316.600,A,3726.1137,N,12210.8685,W,25.17,46.35,240413,,,D*7E","accelData":"-0.03","speedData":"45"},
{"time": "1289995","gpsData":"$GPRMC,061317.000,A,3726.1156,N,12210.8659,W,25.26,46.91,240413,,,D*73","accelData":"-0.03","speedData":"47"},
{"time": "1290391","gpsData":"$GPRMC,061317.400,A,3726.1175,N,12210.8633,W,25.32,47.67,240413,,,D*77","accelData":"-0.02","speedData":"47"},
{"time": "1290788","gpsData":"$GPRMC,061317.800,A,3726.1194,N,12210.8606,W,25.41,48.10,240413,,,D*79","accelData":"-0.03","speedData":"46"},
{"time": "1291190","gpsData":"$GPRMC,061318.200,A,3726.1214,N,12210.8581,W,25.62,47.60,240413,,,D*72","accelData":"-0.03","speedData":"45"},
{"time": "1291586","gpsData":"$GPRMC,061318.600,A,3726.1234,N,12210.8555,W,25.68,47.66,240413,,,D*71","accelData":"-0.04","speedData":"47"},
{"time": "1291987","gpsData":"$GPRMC,061319.000,A,3726.1253,N,12210.8529,W,25.77,47.73,240413,,,D*76","accelData":"-0.03","speedData":"46"},
{"time": "1292389","gpsData":"$GPRMC,061319.400,A,3726.1273,N,12210.8503,W,25.85,47.27,240413,,,D*74","accelData":"-0.04","speedData":"46"},
{"time": "1292790","gpsData":"$GPRMC,061319.800,A,3726.1292,N,12210.8476,W,25.93,47.77,240413,,,D*76","accelData":"-0.02","speedData":"46"},
{"time": "1293191","gpsData":"$GPRMC,061320.200,A,3726.1312,N,12210.8448,W,26.18,47.50,240413,,,D*77","accelData":"-0.02","speedData":"46"},
{"time": "1293588","gpsData":"$GPRMC,061320.600,A,3726.1332,N,12210.8420,W,26.28,47.36,240413,,,D*7C","accelData":"-0.02","speedData":"46"},
{"time": "1293989","gpsData":"$GPRMC,061321.000,A,3726.1351,N,12210.8392,W,26.41,47.69,240413,,,D*75","accelData":"-0.03","speedData":"46"},
{"time": "1294386","gpsData":"$GPRMC,061321.400,A,3726.1370,N,12210.8364,W,26.41,47.80,240413,,,D*7C","accelData":"-0.02","speedData":"46"},
{"time": "1294787","gpsData":"$GPRMC,061321.800,A,3726.1390,N,12210.8336,W,26.41,47.38,240413,,,D*7A","accelData":"-0.03","speedData":"48"},
{"time": "1295188","gpsData":"$GPRMC,061322.200,A,3726.1409,N,12210.8308,W,26.19,47.72,240413,,,D*7A","accelData":"-0.02","speedData":"47"},
{"time": "1295586","gpsData":"$GPRMC,061322.600,A,3726.1428,N,12210.8280,W,26.21,48.10,240413,,,D*7C","accelData":"0.00","speedData":"47"},
{"time": "1295990","gpsData":"$GPRMC,061323.000,A,3726.1448,N,12210.8252,W,26.43,47.88,240413,,,D*78","accelData":"-0.02","speedData":"47"},
{"time": "1296388","gpsData":"$GPRMC,061323.400,A,3726.1468,N,12210.8225,W,26.45,47.76,240413,,,D*79","accelData":"0.00","speedData":"47"},
{"time": "1296785","gpsData":"$GPRMC,061323.800,A,3726.1489,N,12210.8197,W,26.57,47.44,240413,,,D*72","accelData":"-0.02","speedData":"47"},
{"time": "1297185","gpsData":"$GPRMC,061324.200,A,3726.1509,N,12210.8170,W,26.61,47.15,240413,,,D*7E","accelData":"-0.02","speedData":"47"},
{"time": "1297587","gpsData":"$GPRMC,061324.600,A,3726.1530,N,12210.8144,W,26.63,46.67,240413,,,D*71","accelData":"-0.02","speedData":"47"},
{"time": "1297984","gpsData":"$GPRMC,061325.000,A,3726.1551,N,12210.8117,W,26.61,46.41,240413,,,D*71","accelData":"-0.02","speedData":"47"},
{"time": "1298384","gpsData":"$GPRMC,061325.400,A,3726.1572,N,12210.8090,W,26.59,46.32,240413,,,D*75","accelData":"-0.02","speedData":"47"},
{"time": "1298786","gpsData":"$GPRMC,061325.800,A,3726.1593,N,12210.8063,W,26.64,46.62,240413,,,D*71","accelData":"-0.02","speedData":"47"},
{"time": "1299187","gpsData":"$GPRMC,061326.200,A,3726.1613,N,12210.8036,W,26.65,47.62,240413,,,D*73","accelData":"-0.01","speedData":"47"},
{"time": "1299585","gpsData":"$GPRMC,061326.600,A,3726.1633,N,12210.8009,W,26.67,48.14,240413,,,D*75","accelData":"-0.02","speedData":"47"},
{"time": "1299985","gpsData":"$GPRMC,061327.000,A,3726.1654,N,12210.7981,W,26.78,48.23,240413,,,D*7F","accelData":"-0.02","speedData":"49"},
{"time": "1300382","gpsData":"$GPRMC,061327.400,A,3726.1675,N,12210.7953,W,26.87,48.32,240413,,,D*77","accelData":"-0.02","speedData":"49"},
{"time": "1300784","gpsData":"$GPRMC,061327.800,A,3726.1695,N,12210.7925,W,26.95,48.34,240413,,,D*71","accelData":"-0.02","speedData":"49"},
{"time": "1301184","gpsData":"$GPRMC,061328.200,A,3726.1716,N,12210.7896,W,27.53,48.32,240413,,,D*7A","accelData":"-0.03","speedData":"49"},
{"time": "1301581","gpsData":"$GPRMC,061328.600,A,3726.1737,N,12210.7867,W,27.74,48.33,240413,,,D*77","accelData":"-0.02","speedData":"49"},
{"time": "1301983","gpsData":"$GPRMC,061329.000,A,3726.1757,N,12210.7839,W,27.82,48.13,240413,,,D*76","accelData":"-0.03","speedData":"49"},
{"time": "1302383","gpsData":"$GPRMC,061329.400,A,3726.1777,N,12210.7810,W,27.85,48.32,240413,,,D*7F","accelData":"-0.04","speedData":"51"},
{"time": "1302784","gpsData":"$GPRMC,061329.800,A,3726.1798,N,12210.7781,W,27.84,48.10,240413,,,D*74","accelData":"-0.02","speedData":"50"},
{"time": "1303182","gpsData":"$GPRMC,061330.200,A,3726.1819,N,12210.7752,W,27.69,47.63,240413,,,D*76","accelData":"-0.03","speedData":"51"},
{"time": "1303583","gpsData":"$GPRMC,061330.600,A,3726.1840,N,12210.7723,W,27.70,47.30,240413,,,D*76","accelData":"-0.02","speedData":"51"},
{"time": "1303980","gpsData":"$GPRMC,061331.000,A,3726.1860,N,12210.7694,W,27.78,47.29,240413,,,D*7E","accelData":"-0.04","speedData":"50"},
{"time": "1304381","gpsData":"$GPRMC,061331.400,A,3726.1881,N,12210.7665,W,27.93,47.41,240413,,,D*70","accelData":"-0.03","speedData":"50"},
{"time": "1304782","gpsData":"$GPRMC,061331.800,A,3726.1902,N,12210.7636,W,27.98,47.27,240413,,,D*7B","accelData":"-0.04","speedData":"50"},
{"time": "1305186","gpsData":"$GPRMC,061332.200,A,3726.1923,N,12210.7608,W,27.97,47.59,240413,,,D*7A","accelData":"-0.04","speedData":"50"},
{"time": "1305583","gpsData":"$GPRMC,061332.600,A,3726.1943,N,12210.7579,W,27.95,48.01,240413,,,D*7D","accelData":"-0.04","speedData":"50"},
{"time": "1305981","gpsData":"$GPRMC,061333.000,A,3726.1963,N,12210.7549,W,27.85,48.84,240413,,,D*77","accelData":"-0.05","speedData":"50"},
{"time": "1306383","gpsData":"$GPRMC,061333.400,A,3726.1984,N,12210.7519,W,27.85,48.95,240413,,,D*7F","accelData":"-0.05","speedData":"50"},
{"time": "1306779","gpsData":"$GPRMC,061333.800,A,3726.2004,N,12210.7490,W,27.86,48.76,240413,,,D*7F","accelData":"-0.03","speedData":"50"},
{"time": "1307181","gpsData":"$GPRMC,061334.200,A,3726.2025,N,12210.7461,W,27.90,48.44,240413,,,D*79","accelData":"-0.04","speedData":"50"},
{"time": "1307578","gpsData":"$GPRMC,061334.600,A,3726.2046,N,12210.7432,W,27.89,48.43,240413,,,D*71","accelData":"-0.04","speedData":"50"},
{"time": "1307983","gpsData":"$GPRMC,061335.000,A,3726.2066,N,12210.7403,W,27.88,48.69,240413,,,D*7F","accelData":"-0.04","speedData":"49"},
{"time": "1308380","gpsData":"$GPRMC,061335.400,A,3726.2087,N,12210.7374,W,27.68,48.42,240413,,,D*74","accelData":"-0.04","speedData":"49"},
{"time": "1308781","gpsData":"$GPRMC,061335.800,A,3726.2108,N,12210.7345,W,27.65,48.17,240413,,,D*71","accelData":"-0.04","speedData":"51"},
{"time": "1309178","gpsData":"$GPRMC,061336.200,A,3726.2128,N,12210.7317,W,27.60,48.12,240413,,,D*7D","accelData":"-0.03","speedData":"51"},
{"time": "1309579","gpsData":"$GPRMC,061336.600,A,3726.2149,N,12210.7288,W,27.61,47.87,240413,,,D*7B","accelData":"-0.03","speedData":"51"},
{"time": "1309980","gpsData":"$GPRMC,061337.000,A,3726.2170,N,12210.7260,W,27.70,47.80,240413,,,D*77","accelData":"-0.04","speedData":"50"},
{"time": "1310377","gpsData":"$GPRMC,061337.400,A,3726.2191,N,12210.7232,W,27.66,47.79,240413,,,D*7A","accelData":"-0.04","speedData":"50"},
{"time": "1310778","gpsData":"$GPRMC,061337.800,A,3726.2212,N,12210.7204,W,27.83,47.55,240413,,,D*7E","accelData":"-0.03","speedData":"50"},
{"time": "1311186","gpsData":"$GPRMC,061338.200,A,3726.2234,N,12210.7175,W,27.84,47.42,240413,,,D*7B","accelData":"-0.02","speedData":"49"},
{"time": "1311581","gpsData":"$GPRMC,061338.600,A,3726.2254,N,12210.7147,W,27.79,47.17,240413,,,D*7A","accelData":"-0.04","speedData":"49"},
{"time": "1311978","gpsData":"$GPRMC,061339.000,A,3726.2275,N,12210.7118,W,27.78,47.59,240413,,,D*7F","accelData":"-0.02","speedData":"49"},
{"time": "1312378","gpsData":"$GPRMC,061339.400,A,3726.2296,N,12210.7089,W,27.79,47.69,240413,,,D*7D","accelData":"-0.02","speedData":"51"},
{"time": "1312780","gpsData":"$GPRMC,061339.800,A,3726.2317,N,12210.7061,W,27.91,47.71,240413,,,D*70","accelData":"-0.02","speedData":"51"},
{"time": "1313177","gpsData":"$GPRMC,061340.200,A,3726.2338,N,12210.7032,W,28.00,47.89,240413,,,D*7F","accelData":"-0.02","speedData":"51"},
{"time": "1313577","gpsData":"$GPRMC,061340.600,A,3726.2359,N,12210.7003,W,28.29,48.08,240413,,,D*73","accelData":"-0.02","speedData":"51"},
{"time": "1313979","gpsData":"$GPRMC,061341.000,A,3726.2380,N,12210.6973,W,28.58,48.61,240413,,,D*76","accelData":"-0.03","speedData":"51"},
{"time": "1314380","gpsData":"$GPRMC,061341.400,A,3726.2401,N,12210.6943,W,28.67,49.07,240413,,,D*72","accelData":"-0.03","speedData":"51"},
{"time": "1314777","gpsData":"$GPRMC,061341.800,A,3726.2422,N,12210.6913,W,28.75,49.55,240413,,,D*7E","accelData":"-0.03","speedData":"51"},
{"time": "1315178","gpsData":"$GPRMC,061342.200,A,3726.2443,N,12210.6883,W,28.82,49.28,240413,,,D*7A","accelData":"-0.03","speedData":"51"},
{"time": "1315575","gpsData":"$GPRMC,061342.600,A,3726.2464,N,12210.6852,W,28.89,48.95,240413,,,D*7B","accelData":"-0.02","speedData":"51"},
{"time": "1315977","gpsData":"$GPRMC,061343.000,A,3726.2486,N,12210.6822,W,28.88,48.45,240413,,,D*7B","accelData":"-0.02","speedData":"51"},
{"time": "1316377","gpsData":"$GPRMC,061343.400,A,3726.2508,N,12210.6792,W,28.88,48.24,240413,,,D*7B","accelData":"-0.03","speedData":"51"},
{"time": "1316774","gpsData":"$GPRMC,061343.800,A,3726.2530,N,12210.6763,W,28.68,47.70,240413,,,D*72","accelData":"-0.03","speedData":"51"},
{"time": "1317176","gpsData":"$GPRMC,061344.200,A,3726.2551,N,12210.6733,W,28.72,47.47,240413,,,D*72","accelData":"-0.02","speedData":"51"},
{"time": "1317577","gpsData":"$GPRMC,061344.600,A,3726.2572,N,12210.6704,W,28.70,47.73,240413,,,D*76","accelData":"-0.03","speedData":"51"},
{"time": "1317976","gpsData":"$GPRMC,061345.000,A,3726.2593,N,12210.6674,W,28.49,48.13,240413,,,D*7B","accelData":"-0.02","speedData":"51"},
{"time": "1318376","gpsData":"$GPRMC,061345.400,A,3726.2615,N,12210.6645,W,28.46,47.72,240413,,,D*77","accelData":"-0.01","speedData":"51"},
{"time": "1318776","gpsData":"$GPRMC,061345.800,A,3726.2637,N,12210.6615,W,28.42,47.33,240413,,,D*7F","accelData":"-0.02","speedData":"53"},
{"time": "1319177","gpsData":"$GPRMC,061346.200,A,3726.2658,N,12210.6586,W,28.44,47.28,240413,,,D*7A","accelData":"-0.01","speedData":"52"},
{"time": "1319574","gpsData":"$GPRMC,061346.600,A,3726.2680,N,12210.6556,W,28.61,47.05,240413,,,D*7E","accelData":"-0.02","speedData":"52"},
{"time": "1319975","gpsData":"$GPRMC,061347.000,A,3726.2702,N,12210.6527,W,28.65,47.22,240413,,,D*75","accelData":"-0.02","speedData":"51"},
{"time": "1320376","gpsData":"$GPRMC,061347.400,A,3726.2724,N,12210.6497,W,28.73,47.23,240413,,,D*79","accelData":"-0.02","speedData":"53"},
{"time": "1320776","gpsData":"$GPRMC,061347.800,A,3726.2745,N,12210.6467,W,28.75,47.87,240413,,,D*75","accelData":"-0.02","speedData":"52"},
{"time": "1321175","gpsData":"$GPRMC,061348.200,A,3726.2767,N,12210.6438,W,28.64,47.82,240413,,,D*7F","accelData":"-0.02","speedData":"52"},
{"time": "1321575","gpsData":"$GPRMC,061348.600,A,3726.2788,N,12210.6407,W,28.55,48.55,240413,,,D*71","accelData":"-0.02","speedData":"52"},
{"time": "1321972","gpsData":"$GPRMC,061349.000,A,3726.2808,N,12210.6377,W,28.51,49.06,240413,,,D*72","accelData":"-0.03","speedData":"52"},
{"time": "1322374","gpsData":"$GPRMC,061349.400,A,3726.2830,N,12210.6347,W,28.52,48.37,240413,,,D*7E","accelData":"-0.01","speedData":"52"},
{"time": "1322775","gpsData":"$GPRMC,061349.800,A,3726.2852,N,12210.6318,W,28.77,47.58,240413,,,D*7D","accelData":"-0.02","speedData":"54"},
{"time": "1323175","gpsData":"$GPRMC,061350.200,A,3726.2875,N,12210.6288,W,28.83,47.26,240413,,,D*70","accelData":"-0.02","speedData":"53"},
{"time": "1323574","gpsData":"$GPRMC,061350.600,A,3726.2898,N,12210.6259,W,28.98,46.94,240413,,,D*79","accelData":"-0.02","speedData":"53"},
{"time": "1323974","gpsData":"$GPRMC,061351.000,A,3726.2921,N,12210.6229,W,29.26,46.81,240413,,,D*7A","accelData":"-0.01","speedData":"53"},
{"time": "1324375","gpsData":"$GPRMC,061351.400,A,3726.2944,N,12210.6199,W,29.35,46.43,240413,,,D*79","accelData":"-0.02","speedData":"53"},
{"time": "1324772","gpsData":"$GPRMC,061351.800,A,3726.2967,N,12210.6170,W,29.44,46.38,240413,,,D*79","accelData":"-0.02","speedData":"53"},
{"time": "1325173","gpsData":"$GPRMC,061352.200,A,3726.2990,N,12210.6139,W,29.96,46.27,240413,,,D*74","accelData":"-0.02","speedData":"53"},
{"time": "1325575","gpsData":"$GPRMC,061352.600,A,3726.3014,N,12210.6109,W,29.97,46.08,240413,,,D*7B","accelData":"-0.02","speedData":"53"},
{"time": "1325975","gpsData":"$GPRMC,061353.000,A,3726.3037,N,12210.6080,W,29.94,45.79,240413,,,D*7B","accelData":"-0.02","speedData":"53"},
{"time": "1326376","gpsData":"$GPRMC,061353.400,A,3726.3062,N,12210.6051,W,29.95,45.17,240413,,,D*7A","accelData":"0.00","speedData":"53"},
{"time": "1326770","gpsData":"$GPRMC,061353.800,A,3726.3087,N,12210.6022,W,30.02,45.02,240413,,,D*7B","accelData":"-0.02","speedData":"53"},
{"time": "1327170","gpsData":"$GPRMC,061354.200,A,3726.3111,N,12210.5993,W,29.99,45.54,240413,,,D*71","accelData":"-0.02","speedData":"53"},
{"time": "1327571","gpsData":"$GPRMC,061354.600,A,3726.3136,N,12210.5964,W,30.02,45.97,240413,,,D*7D","accelData":"-0.01","speedData":"53"},
{"time": "1327973","gpsData":"$GPRMC,061355.000,A,3726.3159,N,12210.5934,W,30.10,46.61,240413,,,D*7F","accelData":"-0.01","speedData":"53"},
{"time": "1328374","gpsData":"$GPRMC,061355.400,A,3726.3183,N,12210.5904,W,30.11,46.65,240413,,,D*7A","accelData":"-0.01","speedData":"55"},
{"time": "1328771","gpsData":"$GPRMC,061355.800,A,3726.3206,N,12210.5874,W,30.12,46.80,240413,,,D*76","accelData":"-0.01","speedData":"55"},
{"time": "1329176","gpsData":"$GPRMC,061356.200,A,3726.3230,N,12210.5843,W,30.36,46.85,240413,,,D*7D","accelData":"-0.01","speedData":"55"},
{"time": "1329573","gpsData":"$GPRMC,061356.600,A,3726.3253,N,12210.5812,W,30.60,47.02,240413,,,D*75","accelData":"0.00","speedData":"57"},
{"time": "1329970","gpsData":"$GPRMC,061357.000,A,3726.3277,N,12210.5781,W,30.93,46.75,240413,,,D*7C","accelData":"-0.01","speedData":"56"},
{"time": "1330372","gpsData":"$GPRMC,061357.400,A,3726.3302,N,12210.5751,W,31.10,46.35,240413,,,D*78","accelData":"-0.01","speedData":"56"},
{"time": "1330768","gpsData":"$GPRMC,061357.800,A,3726.3327,N,12210.5720,W,31.29,46.47,240413,,,D*7A","accelData":"-0.02","speedData":"56"},
{"time": "1331169","gpsData":"$GPRMC,061358.200,A,3726.3351,N,12210.5689,W,31.37,46.40,240413,,,D*74","accelData":"-0.01","speedData":"56"},
{"time": "1331570","gpsData":"$GPRMC,061358.600,A,3726.3375,N,12210.5657,W,31.63,46.46,240413,,,D*72","accelData":"-0.01","speedData":"56"},
{"time": "1331972","gpsData":"$GPRMC,061359.000,A,3726.3400,N,12210.5626,W,31.68,46.53,240413,,,D*79","accelData":"0.00","speedData":"56"},
{"time": "1332369","gpsData":"$GPRMC,061359.400,A,3726.3425,N,12210.5594,W,31.78,46.51,240413,,,D*73","accelData":"-0.01","speedData":"58"},
{"time": "1332769","gpsData":"$GPRMC,061359.800,A,3726.3450,N,12210.5561,W,31.82,46.85,240413,,,D*7B","accelData":"0.00","speedData":"58"},
{"time": "1333171","gpsData":"$GPRMC,061400.200,A,3726.3474,N,12210.5529,W,31.86,47.11,240413,,,D*78","accelData":"0.01","speedData":"58"},
{"time": "1333568","gpsData":"$GPRMC,061400.600,A,3726.3499,N,12210.5496,W,31.89,47.22,240413,,,D*75","accelData":"0.01","speedData":"57"},
{"time": "1333968","gpsData":"$GPRMC,061401.000,A,3726.3523,N,12210.5462,W,32.07,47.43,240413,,,D*7B","accelData":"-0.01","speedData":"59"},
{"time": "1334371","gpsData":"$GPRMC,061401.400,A,3726.3548,N,12210.5429,W,32.07,47.46,240413,,,D*78","accelData":"-0.02","speedData":"58"},
{"time": "1334771","gpsData":"$GPRMC,061401.800,A,3726.3572,N,12210.5396,W,32.06,47.41,240413,,,D*78","accelData":"-0.02","speedData":"58"},
{"time": "1335169","gpsData":"$GPRMC,061402.200,A,3726.3596,N,12210.5361,W,32.11,47.73,240413,,,D*74","accelData":"-0.01","speedData":"58"},
{"time": "1335569","gpsData":"$GPRMC,061402.600,A,3726.3619,N,12210.5328,W,32.16,47.78,240413,,,D*75","accelData":"-0.02","speedData":"58"},
{"time": "1335966","gpsData":"$GPRMC,061403.000,A,3726.3643,N,12210.5294,W,32.20,47.96,240413,,,D*7E","accelData":"-0.04","speedData":"58"},
{"time": "1336368","gpsData":"$GPRMC,061403.400,A,3726.3667,N,12210.5260,W,32.28,48.03,240413,,,D*7C","accelData":"-0.04","speedData":"60"},
{"time": "1336768","gpsData":"$GPRMC,061403.800,A,3726.3691,N,12210.5226,W,32.39,47.81,240413,,,D*7E","accelData":"-0.04","speedData":"59"},
{"time": "1337168","gpsData":"$GPRMC,061404.200,A,3726.3715,N,12210.5193,W,32.44,47.64,240413,,,D*72","accelData":"-0.05","speedData":"59"},
{"time": "1337567","gpsData":"$GPRMC,061404.600,A,3726.3738,N,12210.5159,W,32.46,47.83,240413,,,D*74","accelData":"-0.05","speedData":"58"},
{"time": "1337976","gpsData":"$GPRMC,061405.000,A,3726.3761,N,12210.5127,W,32.22,47.96,240413,,,D*70","accelData":"-0.05","speedData":"58"},
{"time": "1338369","gpsData":"$GPRMC,061405.400,A,3726.3785,N,12210.5094,W,32.10,47.43,240413,,,D*7E","accelData":"-0.05","speedData":"58"},
{"time": "1338770","gpsData":"$GPRMC,061405.800,A,3726.3809,N,12210.5061,W,32.07,47.00,240413,,,D*72","accelData":"-0.05","speedData":"58"},
{"time": "1339170","gpsData":"$GPRMC,061406.200,A,3726.3834,N,12210.5029,W,32.02,46.31,240413,,,D*7F","accelData":"-0.07","speedData":"57"},
{"time": "1339568","gpsData":"$GPRMC,061406.600,A,3726.3858,N,12210.4997,W,31.82,46.06,240413,,,D*73","accelData":"-0.08","speedData":"57"},
{"time": "1339969","gpsData":"$GPRMC,061407.000,A,3726.3883,N,12210.4966,W,31.71,45.07,240413,,,D*72","accelData":"-0.12","speedData":"57"},
{"time": "1340367","gpsData":"$GPRMC,061407.400,A,3726.3908,N,12210.4936,W,30.99,44.12,240413,,,D*73","accelData":"-0.15","speedData":"56"},
{"time": "1340767","gpsData":"$GPRMC,061407.800,A,3726.3933,N,12210.4907,W,30.80,42.93,240413,,,D*72","accelData":"-0.14","speedData":"56"},
{"time": "1341168","gpsData":"$GPRMC,061408.200,A,3726.3958,N,12210.4879,W,30.43,41.52,240413,,,D*73","accelData":"-0.17","speedData":"54"},
{"time": "1341570","gpsData":"$GPRMC,061408.600,A,3726.3982,N,12210.4852,W,29.70,40.31,240413,,,D*75","accelData":"-0.18","speedData":"52"},
{"time": "1341967","gpsData":"$GPRMC,061409.000,A,3726.4006,N,12210.4828,W,27.82,38.59,240413,,,D*7F","accelData":"-0.17","speedData":"50"},
{"time": "1342367","gpsData":"$GPRMC,061409.400,A,3726.4029,N,12210.4805,W,26.61,37.71,240413,,,D*70","accelData":"-0.15","speedData":"48"},
{"time": "1342769","gpsData":"$GPRMC,061409.800,A,3726.4052,N,12210.4784,W,25.46,37.07,240413,,,D*71","accelData":"-0.15","speedData":"45"},
{"time": "1343166","gpsData":"$GPRMC,061410.200,A,3726.4074,N,12210.4764,W,24.83,36.48,240413,,,D*7B","accelData":"-0.17","speedData":"42"},
{"time": "1343566","gpsData":"$GPRMC,061410.600,A,3726.4096,N,12210.4744,W,24.28,36.12,240413,,,D*7F","accelData":"-0.19","speedData":"42"},
{"time": "1343968","gpsData":"$GPRMC,061411.000,A,3726.4116,N,12210.4725,W,23.19,36.06,240413,,,D*76","accelData":"-0.20","speedData":"40"},
{"time": "1344365","gpsData":"$GPRMC,061411.400,A,3726.4135,N,12210.4709,W,21.88,35.75,240413,,,D*70","accelData":"-0.20","speedData":"38"},
{"time": "1344765","gpsData":"$GPRMC,061411.800,A,3726.4154,N,12210.4694,W,20.51,34.64,240413,,,D*7A","accelData":"-0.18","speedData":"36"},
{"time": "1345167","gpsData":"$GPRMC,061412.200,A,3726.4171,N,12210.4680,W,19.25,33.58,240413,,,D*70","accelData":"-0.17","speedData":"33"},
{"time": "1345564","gpsData":"$GPRMC,061412.600,A,3726.4188,N,12210.4667,W,18.27,32.92,240413,,,D*7F","accelData":"-0.16","speedData":"30"},
{"time": "1345966","gpsData":"$GPRMC,061413.000,A,3726.4204,N,12210.4657,W,16.89,31.57,240413,,,D*7C","accelData":"-0.16","speedData":"28"},
{"time": "1346366","gpsData":"$GPRMC,061413.400,A,3726.4218,N,12210.4646,W,15.77,30.62,240413,,,D*70","accelData":"-0.17","speedData":"28"},
{"time": "1346763","gpsData":"$GPRMC,061413.800,A,3726.4232,N,12210.4637,W,14.72,28.99,240413,,,D*7B","accelData":"-0.17","speedData":"26"},
{"time": "1347169","gpsData":"$GPRMC,061414.200,A,3726.4244,N,12210.4631,W,13.55,27.15,240413,,,D*78","accelData":"-0.15","speedData":"24"},
{"time": "1347565","gpsData":"$GPRMC,061414.600,A,3726.4255,N,12210.4626,W,12.43,25.65,240413,,,D*79","accelData":"-0.18","speedData":"21"},
{"time": "1347962","gpsData":"$GPRMC,061415.000,A,3726.4265,N,12210.4621,W,11.30,23.79,240413,,,D*76","accelData":"-0.16","speedData":"19"},
{"time": "1348364","gpsData":"$GPRMC,061415.400,A,3726.4274,N,12210.4618,W,10.32,22.29,240413,,,D*7F","accelData":"-0.16","speedData":"16"},
{"time": "1348761","gpsData":"$GPRMC,061415.800,A,3726.4282,N,12210.4614,W,9.38,21.24,240413,,,D*4A","accelData":"-0.18","speedData":"16"},
{"time": "1349161","gpsData":"$GPRMC,061416.200,A,3726.4291,N,12210.4612,W,8.51,19.42,240413,,,D*42","accelData":"-0.17","speedData":"14"},
{"time": "1349563","gpsData":"$GPRMC,061416.600,A,3726.4298,N,12210.4609,W,7.65,18.23,240413,,,D*4B","accelData":"-0.18","speedData":"13"},
{"time": "1349964","gpsData":"$GPRMC,061417.000,A,3726.4303,N,12210.4606,W,6.39,18.20,240413,,,D*4B","accelData":"-0.16","speedData":"10"},
{"time": "1350361","gpsData":"$GPRMC,061417.400,A,3726.4306,N,12210.4604,W,5.18,18.66,240413,,,D*4A","accelData":"-0.13","speedData":"8"},
{"time": "1350762","gpsData":"$GPRMC,061417.800,A,3726.4309,N,12210.4601,W,4.29,19.10,240413,,,D*4F","accelData":"-0.12","speedData":"6"},
{"time": "1351163","gpsData":"$GPRMC,061418.200,A,3726.4310,N,12210.4599,W,3.37,23.15,240413,,,D*44","accelData":"-0.11","speedData":"4"},
{"time": "1351561","gpsData":"$GPRMC,061418.600,A,3726.4311,N,12210.4599,W,2.54,20.69,240413,,,D*4D","accelData":"-0.10","speedData":"4"},
{"time": "1351961","gpsData":"$GPRMC,061419.000,A,3726.4312,N,12210.4602,W,1.69,20.69,240413,,,D*45","accelData":"-0.08","speedData":"3"},
{"time": "1352363","gpsData":"$GPRMC,061419.400,A,3726.4313,N,12210.4603,W,1.19,20.69,240413,,,D*46","accelData":"-0.06","speedData":"3"},
{"time": "1352764","gpsData":"$GPRMC,061419.800,A,3726.4312,N,12210.4604,W,0.89,20.69,240413,,,D*44","accelData":"-0.04","speedData":"3"},
{"time": "1353163","gpsData":"$GPRMC,061420.200,A,3726.4312,N,12210.4604,W,0.65,20.69,240413,,,D*46","accelData":"-0.04","speedData":"3"},
{"time": "1353561","gpsData":"$GPRMC,061420.600,A,3726.4309,N,12210.4602,W,0.42,20.69,240413,,,D*4B","accelData":"-0.04","speedData":"3"},
{"time": "1353963","gpsData":"$GPRMC,061421.000,A,3726.4308,N,12210.4600,W,0.31,20.69,240413,,,D*4B","accelData":"-0.02","speedData":"0"},
{"time": "1354360","gpsData":"$GPRMC,061421.400,A,3726.4307,N,12210.4599,W,0.19,20.69,240413,,,D*49","accelData":"-0.03","speedData":"0"},
{"time": "1354761","gpsData":"$GPRMC,061421.800,A,3726.4306,N,12210.4599,W,0.10,20.69,240413,,,D*4D","accelData":"-0.01","speedData":"0"},
{"time": "1355158","gpsData":"$GPRMC,061422.200,A,3726.4306,N,12210.4599,W,0.06,20.69,240413,,,D*43","accelData":"-0.01","speedData":"0"},
{"time": "1355559","gpsData":"$GPRMC,061422.600,A,3726.4306,N,12210.4599,W,0.04,20.69,240413,,,D*45","accelData":"0.00","speedData":"0"},
{"time": "1355960","gpsData":"$GPRMC,061423.000,A,3726.4306,N,12210.4599,W,0.02,20.69,240413,,,D*44","accelData":"0.04","speedData":"0"},
{"time": "1356361","gpsData":"$GPRMC,061423.400,A,3726.4306,N,12210.4599,W,0.13,20.69,240413,,,D*40","accelData":"0.09","speedData":"0"},
{"time": "1356763","gpsData":"$GPRMC,061423.800,A,3726.4306,N,12210.4599,W,0.27,36.38,240413,,,D*48","accelData":"0.09","speedData":"0"},
{"time": "1357159","gpsData":"$GPRMC,061424.200,A,3726.4306,N,12210.4599,W,0.57,31.11,240413,,,D*4E","accelData":"0.10","speedData":"3"},
{"time": "1357560","gpsData":"$GPRMC,061424.600,A,3726.4307,N,12210.4598,W,0.91,29.27,240413,,,D*4C","accelData":"0.09","speedData":"6"},
{"time": "1357962","gpsData":"$GPRMC,061425.000,A,3726.4308,N,12210.4597,W,1.35,27.73,240413,,,D*4B","accelData":"0.09","speedData":"8"},
{"time": "1358359","gpsData":"$GPRMC,061425.400,A,3726.4310,N,12210.4597,W,1.86,28.74,240413,,,D*46","accelData":"0.09","speedData":"10"},
{"time": "1358759","gpsData":"$GPRMC,061425.800,A,3726.4313,N,12210.4595,W,2.59,24.53,240413,,,D*43","accelData":"0.09","speedData":"13"},
{"time": "1359165","gpsData":"$GPRMC,061426.200,A,3726.4320,N,12210.4594,W,3.72,27.58,240413,,,D*4B","accelData":"0.08","speedData":"15"},
{"time": "1359558","gpsData":"$GPRMC,061426.600,A,3726.4331,N,12210.4594,W,4.90,29.60,240413,,,D*41","accelData":"0.06","speedData":"15"},
{"time": "1359963","gpsData":"$GPRMC,061427.000,A,3726.4340,N,12210.4591,W,6.00,27.09,240413,,,D*4F","accelData":"0.07","speedData":"17"},
{"time": "1360360","gpsData":"$GPRMC,061427.400,A,3726.4352,N,12210.4586,W,7.81,25.34,240413,,,D*4A","accelData":"0.07","speedData":"17"},
{"time": "1360757","gpsData":"$GPRMC,061427.800,A,3726.4363,N,12210.4581,W,8.92,24.32,240413,,,D*49","accelData":"0.06","speedData":"19"},
{"time": "1361158","gpsData":"$GPRMC,061428.200,A,3726.4377,N,12210.4575,W,10.03,22.93,240413,,,D*7E","accelData":"0.07","speedData":"21"},
{"time": "1361559","gpsData":"$GPRMC,061428.600,A,3726.4391,N,12210.4569,W,10.74,22.58,240413,,,D*78","accelData":"0.07","speedData":"23"},
{"time": "1361960","gpsData":"$GPRMC,061429.000,A,3726.4406,N,12210.4562,W,11.63,22.27,240413,,,D*72","accelData":"0.05","speedData":"23"},
{"time": "1362362","gpsData":"$GPRMC,061429.400,A,3726.4420,N,12210.4556,W,12.38,21.48,240413,,,D*72","accelData":"0.05","speedData":"23"},
{"time": "1362758","gpsData":"$GPRMC,061429.800,A,3726.4434,N,12210.4549,W,12.59,21.08,240413,,,D*76","accelData":"0.05","speedData":"25"},
{"time": "1363160","gpsData":"$GPRMC,061430.200,A,3726.4448,N,12210.4543,W,12.78,20.77,240413,,,D*7F","accelData":"0.04","speedData":"27"},
{"time": "1363557","gpsData":"$GPRMC,061430.600,A,3726.4462,N,12210.4537,W,13.04,20.14,240413,,,D*7F","accelData":"0.03","speedData":"27"},
{"time": "1363958","gpsData":"$GPRMC,061431.000,A,3726.4479,N,12210.4531,W,13.83,19.08,240413,,,D*7C","accelData":"0.02","speedData":"29"},
{"time": "1364359","gpsData":"$GPRMC,061431.400,A,3726.4496,N,12210.4525,W,14.33,18.32,240413,,,D*78","accelData":"0.03","speedData":"31"},
{"time": "1364760","gpsData":"$GPRMC,061431.800,A,3726.4512,N,12210.4519,W,14.58,17.77,240413,,,D*75","accelData":"0.03","speedData":"31"},
{"time": "1365157","gpsData":"$GPRMC,061432.200,A,3726.4530,N,12210.4513,W,15.05,17.98,240413,,,D*7E","accelData":"0.01","speedData":"31"},
{"time": "1365558","gpsData":"$GPRMC,061432.600,A,3726.4549,N,12210.4506,W,15.58,18.05,240413,,,D*73","accelData":"0.03","speedData":"31"},
{"time": "1365959","gpsData":"$GPRMC,061433.000,A,3726.4567,N,12210.4501,W,15.66,17.66,240413,,,D*78","accelData":"0.01","speedData":"31"},
{"time": "1366356","gpsData":"$GPRMC,061433.400,A,3726.4587,N,12210.4500,W,15.97,17.00,240413,,,D*7D","accelData":"-0.01","speedData":"31"},
{"time": "1366757","gpsData":"$GPRMC,061433.800,A,3726.4606,N,12210.4501,W,16.18,16.50,240413,,,D*7A","accelData":"0.00","speedData":"34"},
{"time": "1367154","gpsData":"$GPRMC,061434.200,A,3726.4632,N,12210.4498,W,16.69,15.14,240413,,,D*74","accelData":"-0.01","speedData":"34"},
{"time": "1367556","gpsData":"$GPRMC,061434.600,A,3726.4658,N,12210.4495,W,17.22,14.20,240413,,,D*79","accelData":"0.01","speedData":"34"},
{"time": "1367956","gpsData":"$GPRMC,061435.000,A,3726.4682,N,12210.4492,W,17.74,12.77,240413,,,D*79","accelData":"0.02","speedData":"33"},
{"time": "1368357","gpsData":"$GPRMC,061435.400,A,3726.4705,N,12210.4488,W,17.98,11.25,240413,,,D*7E","accelData":"0.01","speedData":"35"},
{"time": "1368755","gpsData":"$GPRMC,061435.800,A,3726.4728,N,12210.4485,W,18.32,9.95,240413,,,D*4D","accelData":"0.00","speedData":"35"},
{"time": "1369154","gpsData":"$GPRMC,061436.200,A,3726.4749,N,12210.4480,W,18.92,9.78,240413,,,D*4F","accelData":"0.01","speedData":"36"},
{"time": "1369552","gpsData":"$GPRMC,061436.600,A,3726.4771,N,12210.4475,W,19.03,9.36,240413,,,D*49","accelData":"0.01","speedData":"35"},
{"time": "1369954","gpsData":"$GPRMC,061437.000,A,3726.4792,N,12210.4471,W,19.18,9.22,240413,,,D*48","accelData":"0.00","speedData":"35"},
{"time": "1370355","gpsData":"$GPRMC,061437.400,A,3726.4814,N,12210.4466,W,19.61,9.12,240413,,,D*46","accelData":"-0.01","speedData":"35"},
{"time": "1370756","gpsData":"$GPRMC,061437.800,A,3726.4835,N,12210.4461,W,19.92,9.00,240413,,,D*41","accelData":"-0.01","speedData":"37"},
{"time": "1371157","gpsData":"$GPRMC,061438.200,A,3726.4858,N,12210.4456,W,20.19,8.58,240413,,,D*4E","accelData":"0.00","speedData":"37"},
{"time": "1371554","gpsData":"$GPRMC,061438.600,A,3726.4880,N,12210.4451,W,20.30,8.33,240413,,,D*4E","accelData":"0.01","speedData":"37"},
{"time": "1371956","gpsData":"$GPRMC,061439.000,A,3726.4902,N,12210.4446,W,20.68,8.41,240413,,,D*4C","accelData":"0.01","speedData":"39"},
{"time": "1372355","gpsData":"$GPRMC,061439.400,A,3726.4925,N,12210.4441,W,20.91,8.83,240413,,,D*42","accelData":"0.01","speedData":"39"},
{"time": "1372753","gpsData":"$GPRMC,061439.800,A,3726.4948,N,12210.4435,W,21.31,9.10,240413,,,D*46","accelData":"0.00","speedData":"41"},
{"time": "1373155","gpsData":"$GPRMC,061440.200,A,3726.4971,N,12210.4429,W,21.56,9.38,240413,,,D*4E","accelData":"0.00","speedData":"40"},
{"time": "1373551","gpsData":"$GPRMC,061440.600,A,3726.4995,N,12210.4423,W,21.81,9.24,240413,,,D*4D","accelData":"-0.01","speedData":"39"},
{"time": "1373957","gpsData":"$GPRMC,061441.000,A,3726.5019,N,12210.4417,W,22.07,8.93,240413,,,D*41","accelData":"-0.01","speedData":"41"},
{"time": "1374354","gpsData":"$GPRMC,061441.400,A,3726.5044,N,12210.4411,W,22.34,8.66,240413,,,D*41","accelData":"-0.01","speedData":"41"},
{"time": "1374754","gpsData":"$GPRMC,061441.800,A,3726.5068,N,12210.4406,W,22.54,8.45,240413,,,D*42","accelData":"-0.01","speedData":"41"},
{"time": "1375152","gpsData":"$GPRMC,061442.200,A,3726.5094,N,12210.4399,W,22.79,8.67,240413,,,D*46","accelData":"0.01","speedData":"41"},
{"time": "1375553","gpsData":"$GPRMC,061442.600,A,3726.5120,N,12210.4393,W,22.96,8.98,240413,,,D*47","accelData":"-0.01","speedData":"41"},
{"time": "1375954","gpsData":"$GPRMC,061443.000,A,3726.5146,N,12210.4386,W,23.19,9.08,240413,,,D*4A","accelData":"-0.01","speedData":"41"},
{"time": "1376351","gpsData":"$GPRMC,061443.400,A,3726.5172,N,12210.4379,W,23.22,8.94,240413,,,D*45","accelData":"-0.01","speedData":"41"},
{"time": "1376752","gpsData":"$GPRMC,061443.800,A,3726.5198,N,12210.4372,W,23.17,9.08,240413,,,D*44","accelData":"-0.01","speedData":"43"},
