{
"driveData":[
{"time": "38898","gpsData":"$GPRMC,055225.400,A,3725.9656,N,12210.7955,W,0.00,94.54,240413,,,D*45","accelData":"0.01","speedData":"0"},
{"time": "39300","gpsData":"$GPRMC,055225.800,A,3725.9656,N,12210.7955,W,0.00,94.54,240413,,,D*49","accelData":"0.02","speedData":"0"},
{"time": "39700","gpsData":"$GPRMC,055226.200,A,3725.9656,N,12210.7955,W,0.00,94.54,240413,,,D*40","accelData":"0.01","speedData":"0"},
{"time": "40097","gpsData":"$GPRMC,055226.600,A,3725.9656,N,12210.7955,W,0.00,94.54,240413,,,D*44","accelData":"0.02","speedData":"0"},
{"time": "40499","gpsData":"$GPRMC,055227.000,A,3725.9656,N,12210.7955,W,0.00,94.54,240413,,,D*43","accelData":"0.01","speedData":"0"},
{"time": "40900","gpsData":"$GPRMC,055227.400,A,3725.9656,N,12210.7955,W,0.00,94.54,240413,,,D*47","accelData":"0.01","speedData":"0"},
{"time": "41296","gpsData":"$GPRMC,055227.800,A,3725.9656,N,12210.7955,W,0.00,94.54,240413,,,D*4B","accelData":"0.02","speedData":"0"},
{"time": "41698","gpsData":"$GPRMC,055228.200,A,3725.9656,N,12210.7955,W,0.00,94.54,240413,,,D*4E","accelData":"0.02","speedData":"0"},
{"time": "42094","gpsData":"$GPRMC,055228.600,A,3725.9656,N,12210.7955,W,0.00,94.54,240413,,,D*4A","accelData":"0.01","speedData":"0"},
{"time": "42500","gpsData":"$GPRMC,055229.000,A,3725.9656,N,12210.7955,W,0.00,94.54,240413,,,D*4D","accelData":"0.01","speedData":"0"},
{"time": "42898","gpsData":"$GPRMC,055229.400,A,3725.9656,N,12210.7955,W,0.00,94.54,240413,,,D*49","accelData":"0.02","speedData":"0"},
{"time": "43294","gpsData":"$GPRMC,055229.800,A,3725.9656,N,12210.7955,W,0.00,94.54,240413,,,D*45","accelData":"0.02","speedData":"0"},
{"time": "43695","gpsData":"$GPRMC,055230.200,A,3725.9656,N,12210.7955,W,0.00,94.54,240413,,,D*47","accelData":"0.02","speedData":"0"},
{"time": "44096","gpsData":"$GPRMC,055230.600,A,3725.9656,N,12210.7955,W,0.00,94.54,240413,,,D*43","accelData":"0.02","speedData":"0"},
{"time": "44497","gpsData":"$GPRMC,055231.000,A,3725.9656,N,12210.7955,W,0.00,94.54,240413,,,D*44","accelData":"0.02","speedData":"0"},
{"time": "44894","gpsData":"$GPRMC,055231.400,A,3725.9656,N,12210.7955,W,0.00,94.54,240413,,,D*40","accelData":"0.02","speedData":"0"},
{"time": "45295","gpsData":"$GPRMC,055231.800,A,3725.9656,N,12210.7955,W,0.00,94.54,240413,,,D*4C","accelData":"0.02","speedData":"0"},
{"time": "45701","gpsData":"$GPRMC,055232.200,A,3725.9656,N,12210.7955,W,0.00,94.54,240413,,,D*45","accelData":"0.04","speedData":"0"},
{"time": "46098","gpsData":"$GPRMC,055232.600,A,3725.9656,N,12210.7955,W,0.00,94.54,240413,,,D*41","accelData":"0.02","speedData":"0"},
{"time": "46494","gpsData":"$GPRMC,055233.000,A,3725.9656,N,12210.7955,W,0.01,94.54,240413,,,D*47","accelData":"0.02","speedData":"0"},
{"time": "46897","gpsData":"$GPRMC,055233.400,A,3725.9656,N,12210.7955,W,0.00,94.54,240413,,,D*42","accelData":"0.03","speedData":"0"},
{"time": "47293","gpsData":"$GPRMC,055233.800,A,3725.9656,N,12210.7955,W,0.00,94.54,240413,,,D*4E","accelData":"0.02","speedData":"0"},
{"time": "47693","gpsData":"$GPRMC,055234.200,A,3725.9656,N,12210.7955,W,0.01,94.54,240413,,,D*42","accelData":"0.03","speedData":"0"},
{"time": "48095","gpsData":"$GPRMC,055234.600,A,3725.9656,N,12210.7955,W,0.00,94.54,240413,,,D*47","accelData":"0.02","speedData":"0"},
{"time": "48496","gpsData":"$GPRMC,055235.000,A,3725.9656,N,12210.7955,W,0.00,94.54,240413,,,D*40","accelData":"0.02","speedData":"0"},
{"time": "48897","gpsData":"$GPRMC,055235.400,A,3725.9656,N,12210.7955,W,0.00,94.54,240413,,,D*44","accelData":"0.02","speedData":"0"},
{"time": "49294","gpsData":"$GPRMC,055235.800,A,3725.9656,N,12210.7955,W,0.00,94.54,240413,,,D*48","accelData":"0.03","speedData":"0"},
{"time": "49695","gpsData":"$GPRMC,055236.200,A,3725.9656,N,12210.7955,W,0.00,94.54,240413,,,D*41","accelData":"0.02","speedData":"0"},
{"time": "50093","gpsData":"$GPRMC,055236.600,A,3725.9656,N,12210.7955,W,0.00,94.54,240413,,,D*45","accelData":"0.02","speedData":"0"},
{"time": "50493","gpsData":"$GPRMC,055237.000,A,3725.9656,N,12210.7955,W,0.00,94.54,240413,,,D*42","accelData":"0.04","speedData":"0"},
{"time": "50892","gpsData":"$GPRMC,055237.400,A,3725.9656,N,12210.7955,W,0.00,94.54,240413,,,D*46","accelData":"0.04","speedData":"0"},
{"time": "51292","gpsData":"$GPRMC,055237.800,A,3725.9656,N,12210.7955,W,0.01,94.54,240413,,,D*4B","accelData":"0.02","speedData":"0"},
{"time": "51692","gpsData":"$GPRMC,055238.200,A,3725.9656,N,12210.7955,W,0.01,94.54,240413,,,D*4E","accelData":"0.01","speedData":"0"},
{"time": "52092","gpsData":"$GPRMC,055238.600,A,3725.9656,N,12210.7955,W,0.01,94.54,240413,,,D*4A","accelData":"0.02","speedData":"0"},
{"time": "52495","gpsData":"$GPRMC,055239.000,A,3725.9656,N,12210.7955,W,0.01,94.54,240413,,,D*4D","accelData":"0.01","speedData":"0"},
{"time": "52892","gpsData":"$GPRMC,055239.400,A,3725.9656,N,12210.7955,W,0.01,94.54,240413,,,D*49","accelData":"0.02","speedData":"0"},
{"time": "53288","gpsData":"$GPRMC,055239.800,A,3725.9656,N,12210.7955,W,0.00,94.54,240413,,,D*44","accelData":"0.01","speedData":"0"},
{"time": "53690","gpsData":"$GPRMC,055240.200,A,3725.9656,N,12210.7955,W,0.00,94.54,240413,,,D*40","accelData":"0.03","speedData":"0"},
{"time": "54091","gpsData":"$GPRMC,055240.600,A,3725.9656,N,12210.7955,W,0.00,94.54,240413,,,D*44","accelData":"0.01","speedData":"0"},
{"time": "54493","gpsData":"$GPRMC,055241.000,A,3725.9656,N,12210.7955,W,0.00,94.54,240413,,,D*43","accelData":"-0.02","speedData":"0"},
{"time": "54894","gpsData":"$GPRMC,055241.400,A,3725.9656,N,12210.7955,W,0.00,94.54,240413,,,D*47","accelData":"-0.02","speedData":"0"},
{"time": "55291","gpsData":"$GPRMC,055241.800,A,3725.9656,N,12210.7955,W,0.01,94.54,240413,,,D*4A","accelData":"-0.02","speedData":"0"},
{"time": "55691","gpsData":"$GPRMC,055242.200,A,3725.9656,N,12210.7955,W,0.00,94.54,240413,,,D*42","accelData":"-0.02","speedData":"0"},
{"time": "56092","gpsData":"$GPRMC,055242.600,A,3725.9656,N,12210.7955,W,0.00,94.54,240413,,,D*46","accelData":"-0.02","speedData":"0"},
{"time": "56489","gpsData":"$GPRMC,055243.000,A,3725.9656,N,12210.7955,W,0.00,94.54,240413,,,D*41","accelData":"0.01","speedData":"0"},
{"time": "56894","gpsData":"$GPRMC,055243.400,A,3725.9656,N,12210.7955,W,0.01,94.54,240413,,,D*44","accelData":"0.04","speedData":"0"},
{"time": "57291","gpsData":"$GPRMC,055243.800,A,3725.9656,N,12210.7955,W,0.00,94.54,240413,,,D*49","accelData":"0.08","speedData":"0"},
{"time": "57693","gpsData":"$GPRMC,055244.200,A,3725.9656,N,12210.7955,W,0.00,94.54,240413,,,D*44","accelData":"0.04","speedData":"0"},
{"time": "58090","gpsData":"$GPRMC,055244.600,A,3725.9656,N,12210.7955,W,0.00,94.54,240413,,,D*40","accelData":"0.04","speedData":"0"},
{"time": "58491","gpsData":"$GPRMC,055245.000,A,3725.9656,N,12210.7955,W,0.00,94.54,240413,,,D*47","accelData":"0.01","speedData":"0"},
{"time": "58892","gpsData":"$GPRMC,055245.400,A,3725.9656,N,12210.7955,W,0.00,94.54,240413,,,D*43","accelData":"0.01","speedData":"0"},
{"time": "59289","gpsData":"$GPRMC,055245.800,A,3725.9656,N,12210.7955,W,0.00,94.54,240413,,,D*4F","accelData":"0.04","speedData":"0"},
{"time": "59691","gpsData":"$GPRMC,055246.200,A,3725.9656,N,12210.7955,W,0.00,94.54,240413,,,D*46","accelData":"0.05","speedData":"0"},
{"time": "60087","gpsData":"$GPRMC,055246.600,A,3725.9656,N,12210.7955,W,0.00,94.54,240413,,,D*42","accelData":"0.05","speedData":"0"},
{"time": "60488","gpsData":"$GPRMC,055247.000,A,3725.9656,N,12210.7955,W,0.01,94.54,240413,,,D*44","accelData":"0.08","speedData":"0"},
{"time": "60890","gpsData":"$GPRMC,055247.400,A,3725.9656,N,12210.7955,W,0.01,94.54,240413,,,D*40","accelData":"0.10","speedData":"0"},
{"time": "61290","gpsData":"$GPRMC,055247.800,A,3725.9656,N,12210.7955,W,0.00,94.54,240413,,,D*4D","accelData":"0.10","speedData":"0"},
{"time": "61687","gpsData":"$GPRMC,055248.200,A,3725.9656,N,12210.7955,W,0.00,94.54,240413,,,D*48","accelData":"0.10","speedData":"3"},
{"time": "62089","gpsData":"$GPRMC,055248.600,A,3725.9656,N,12210.7955,W,0.00,94.54,240413,,,D*4C","accelData":"0.10","speedData":"5"},
{"time": "62489","gpsData":"$GPRMC,055249.000,A,3725.9656,N,12210.7955,W,0.01,94.54,240413,,,D*4A","accelData":"0.10","speedData":"7"},
{"time": "62891","gpsData":"$GPRMC,055249.400,A,3725.9656,N,12210.7955,W,0.04,94.54,240413,,,D*4B","accelData":"0.07","speedData":"7"},
{"time": "63288","gpsData":"$GPRMC,055249.800,A,3725.9656,N,12210.7955,W,0.02,94.54,240413,,,D*41","accelData":"0.04","speedData":"7"},
{"time": "63689","gpsData":"$GPRMC,055250.200,A,3725.9656,N,12210.7955,W,0.02,94.54,240413,,,D*43","accelData":"0.02","speedData":"7"},
{"time": "64086","gpsData":"$GPRMC,055250.600,A,3725.9656,N,12210.7955,W,0.01,94.54,240413,,,D*44","accelData":"0.02","speedData":"9"},
{"time": "64487","gpsData":"$GPRMC,055251.000,A,3725.9656,N,12210.7955,W,0.01,94.54,240413,,,D*43","accelData":"0.01","speedData":"9"},
{"time": "64888","gpsData":"$GPRMC,055251.400,A,3725.9655,N,12210.7955,W,0.01,94.54,240413,,,D*44","accelData":"-0.02","speedData":"8"},
{"time": "65286","gpsData":"$GPRMC,055251.800,A,3725.9655,N,12210.7955,W,0.01,94.54,240413,,,D*48","accelData":"-0.03","speedData":"8"},
{"time": "65686","gpsData":"$GPRMC,055252.200,A,3725.9655,N,12210.7955,W,0.01,94.54,240413,,,D*41","accelData":"-0.05","speedData":"6"},
{"time": "66087","gpsData":"$GPRMC,055252.600,A,3725.9655,N,12210.7955,W,0.01,94.54,240413,,,D*45","accelData":"-0.05","speedData":"6"},
{"time": "66489","gpsData":"$GPRMC,055253.000,A,3725.9655,N,12210.7955,W,0.01,94.54,240413,,,D*42","accelData":"-0.02","speedData":"5"},
{"time": "66889","gpsData":"$GPRMC,055253.400,A,3725.9655,N,12210.7955,W,0.01,94.54,240413,,,D*46","accelData":"0.01","speedData":"4"},
{"time": "67282","gpsData":"$GPRMC,055253.800,A,3725.9655,N,12210.7955,W,0.01,94.54,240413,,,D*4A","accelData":"0.02","speedData":"3"},
{"time": "67684","gpsData":"$GPRMC,055254.200,A,3725.9655,N,12210.7955,W,0.01,94.54,240413,,,D*47","accelData":"0.05","speedData":"3"},
{"time": "68082","gpsData":"$GPRMC,055254.600,A,3725.9655,N,12210.7955,W,0.00,94.54,240413,,,D*42","accelData":"0.15","speedData":"5"},
{"time": "68482","gpsData":"$GPRMC,055255.000,A,3725.9655,N,12210.7955,W,0.03,94.54,240413,,,D*46","accelData":"0.15","speedData":"5"},
{"time": "68887","gpsData":"$GPRMC,055255.400,A,3725.9655,N,12210.7955,W,0.11,94.54,240413,,,D*41","accelData":"0.15","speedData":"5"},
{"time": "69284","gpsData":"$GPRMC,055255.800,A,3725.9655,N,12210.7955,W,0.24,94.54,240413,,,D*4B","accelData":"0.14","speedData":"7"},
{"time": "69689","gpsData":"$GPRMC,055256.200,A,3725.9655,N,12210.7955,W,0.09,94.54,240413,,,D*4D","accelData":"0.12","speedData":"10"},
{"time": "70086","gpsData":"$GPRMC,055256.600,A,3725.9655,N,12210.7955,W,0.06,94.54,240413,,,D*46","accelData":"0.11","speedData":"13"},
{"time": "70483","gpsData":"$GPRMC,055257.000,A,3725.9655,N,12210.7955,W,0.11,94.54,240413,,,D*47","accelData":"0.08","speedData":"15"},
{"time": "70888","gpsData":"$GPRMC,055257.400,A,3725.9654,N,12210.7955,W,0.49,94.54,240413,,,D*4F","accelData":"0.08","speedData":"17"},
{"time": "71285","gpsData":"$GPRMC,055257.800,A,3725.9654,N,12210.7956,W,0.13,94.54,240413,,,D*4F","accelData":"0.12","speedData":"19"},
{"time": "71687","gpsData":"$GPRMC,055258.200,A,3725.9654,N,12210.7956,W,0.35,94.54,240413,,,D*4E","accelData":"0.19","speedData":"19"},
{"time": "72088","gpsData":"$GPRMC,055258.600,A,3725.9654,N,12210.7956,W,0.69,94.54,240413,,,D*43","accelData":"0.24","speedData":"22"},
{"time": "72484","gpsData":"$GPRMC,055259.000,A,3725.9654,N,12210.7957,W,0.11,94.54,240413,,,D*4A","accelData":"0.27","speedData":"25"},
{"time": "72886","gpsData":"$GPRMC,055259.400,A,3725.9654,N,12210.7957,W,0.13,94.54,240413,,,D*4C","accelData":"0.27","speedData":"29"},
{"time": "73287","gpsData":"$GPRMC,055259.800,A,3725.9654,N,12210.7957,W,0.14,94.54,240413,,,D*47","accelData":"0.26","speedData":"34"},
{"time": "73688","gpsData":"$GPRMC,055300.200,A,3725.9654,N,12210.7957,W,0.38,94.54,240413,,,D*4E","accelData":"0.26","speedData":"37"},
{"time": "74081","gpsData":"$GPRMC,055300.600,A,3725.9654,N,12210.7957,W,0.35,94.54,240413,,,D*47","accelData":"0.24","speedData":"37"},
{"time": "74482","gpsData":"$GPRMC,055301.000,A,3725.9655,N,12210.7960,W,0.98,276.05,240413,,,D*78","accelData":"0.21","speedData":"41"},
{"time": "74890","gpsData":"$GPRMC,055301.400,A,3725.9658,N,12210.7970,W,1.66,283.96,240413,,,D*70","accelData":"0.13","speedData":"45"},
{"time": "75284","gpsData":"$GPRMC,055301.800,A,3725.9661,N,12210.7980,W,2.37,292.24,240413,,,D*77","accelData":"0.08","speedData":"47"},
{"time": "75685","gpsData":"$GPRMC,055302.200,A,3725.9663,N,12210.7990,W,2.99,293.39,240413,,,D*74","accelData":"0.03","speedData":"49"},
{"time": "76082","gpsData":"$GPRMC,055302.600,A,3725.9669,N,12210.8002,W,4.13,301.02,240413,,,D*71","accelData":"-0.01","speedData":"49"},
{"time": "76483","gpsData":"$GPRMC,055303.000,A,3725.9675,N,12210.8015,W,5.32,304.67,240413,,,D*79","accelData":"0.00","speedData":"48"},
{"time": "76884","gpsData":"$GPRMC,055303.400,A,3725.9684,N,12210.8030,W,6.68,307.13,240413,,,D*78","accelData":"-0.03","speedData":"48"},
{"time": "77282","gpsData":"$GPRMC,055303.800,A,3725.9692,N,12210.8046,W,7.87,308.15,240413,,,D*7B","accelData":"-0.04","speedData":"48"},
{"time": "77682","gpsData":"$GPRMC,055304.200,A,3725.9704,N,12210.8066,W,9.30,308.82,240413,,,D*76","accelData":"-0.04","speedData":"48"},
{"time": "78084","gpsData":"$GPRMC,055304.600,A,3725.9715,N,12210.8087,W,10.48,308.48,240413,,,D*4C","accelData":"-0.02","speedData":"47"},
{"time": "78489","gpsData":"$GPRMC,055305.000,A,3725.9723,N,12210.8110,W,11.42,306.79,240413,,,D*46","accelData":"-0.04","speedData":"46"},
{"time": "78885","gpsData":"$GPRMC,055305.400,A,3725.9729,N,12210.8137,W,12.32,303.70,240413,,,D*45","accelData":"-0.05","speedData":"45"},
{"time": "79287","gpsData":"$GPRMC,055305.800,A,3725.9728,N,12210.8174,W,13.69,298.33,240413,,,D*44","accelData":"-0.03","speedData":"44"},
{"time": "79684","gpsData":"$GPRMC,055306.200,A,3725.9722,N,12210.8215,W,14.83,292.18,240413,,,D*43","accelData":"-0.04","speedData":"44"},
{"time": "80081","gpsData":"$GPRMC,055306.600,A,3725.9699,N,12210.8279,W,18.26,275.44,240413,,,D*4F","accelData":"0.01","speedData":"43"},
{"time": "80482","gpsData":"$GPRMC,055307.000,A,3725.9696,N,12210.8317,W,19.29,273.82,240413,,,D*4C","accelData":"0.04","speedData":"43"},
{"time": "80883","gpsData":"$GPRMC,055307.400,A,3725.9689,N,12210.8361,W,20.43,271.39,240413,,,D*43","accelData":"0.05","speedData":"45"},
{"time": "81285","gpsData":"$GPRMC,055307.800,A,3725.9683,N,12210.8401,W,21.18,269.47,240413,,,D*4B","accelData":"0.07","speedData":"45"},
{"time": "81685","gpsData":"$GPRMC,055308.200,A,3725.9676,N,12210.8447,W,22.28,267.16,240413,,,D*4C","accelData":"0.06","speedData":"45"},
{"time": "82082","gpsData":"$GPRMC,055308.600,A,3725.9669,N,12210.8491,W,22.95,265.70,240413,,,D*49","accelData":"0.06","speedData":"45"},
{"time": "82484","gpsData":"$GPRMC,055309.000,A,3725.9661,N,12210.8537,W,23.88,264.07,240413,,,D*47","accelData":"0.04","speedData":"47"},
{"time": "82884","gpsData":"$GPRMC,055309.400,A,3725.9652,N,12210.8585,W,24.90,262.37,240413,,,D*41","accelData":"0.05","speedData":"47"},
{"time": "83281","gpsData":"$GPRMC,055309.800,A,3725.9641,N,12210.8632,W,25.64,260.85,240413,,,D*41","accelData":"0.04","speedData":"47"},
{"time": "83683","gpsData":"$GPRMC,055310.200,A,3725.9629,N,12210.8680,W,26.38,258.40,240413,,,D*4C","accelData":"0.01","speedData":"47"},
{"time": "84084","gpsData":"$GPRMC,055310.600,A,3725.9618,N,12210.8724,W,26.31,256.14,240413,,,D*43","accelData":"-0.02","speedData":"49"},
{"time": "84485","gpsData":"$GPRMC,055311.000,A,3725.9603,N,12210.8770,W,26.30,253.26,240413,,,D*4A","accelData":"-0.04","speedData":"49"},
{"time": "84882","gpsData":"$GPRMC,055311.400,A,3725.9589,N,12210.8815,W,26.25,251.72,240413,,,D*44","accelData":"-0.04","speedData":"49"},
{"time": "85283","gpsData":"$GPRMC,055311.800,A,3725.9577,N,12210.8858,W,26.22,250.23,240413,,,D*42","accelData":"-0.05","speedData":"47"},
{"time": "85682","gpsData":"$GPRMC,055312.200,A,3725.9561,N,12210.8906,W,26.20,248.19,240413,,,D*44","accelData":"-0.05","speedData":"47"},
{"time": "86081","gpsData":"$GPRMC,055312.600,A,3725.9544,N,12210.8954,W,25.76,247.02,240413,,,D*45","accelData":"-0.05","speedData":"46"},
{"time": "86482","gpsData":"$GPRMC,055313.000,A,3725.9529,N,12210.8998,W,25.06,245.23,240413,,,D*4F","accelData":"-0.05","speedData":"45"},
{"time": "86883","gpsData":"$GPRMC,055313.400,A,3725.9508,N,12210.9045,W,24.67,244.14,240413,,,D*43","accelData":"-0.05","speedData":"44"},
{"time": "87280","gpsData":"$GPRMC,055313.800,A,3725.9488,N,12210.9092,W,24.58,243.18,240413,,,D*4B","accelData":"-0.03","speedData":"43"},
{"time": "87686","gpsData":"$GPRMC,055314.200,A,3725.9466,N,12210.9139,W,24.50,242.49,240413,,,D*4B","accelData":"-0.02","speedData":"43"},
{"time": "88083","gpsData":"$GPRMC,055314.600,A,3725.9449,N,12210.9184,W,24.46,241.88,240413,,,D*4D","accelData":"-0.02","speedData":"43"},
{"time": "88482","gpsData":"$GPRMC,055315.000,A,3725.9432,N,12210.9222,W,24.41,240.35,240413,,,D*49","accelData":"-0.02","speedData":"43"},
{"time": "88881","gpsData":"$GPRMC,055315.400,A,3725.9416,N,12210.9258,W,24.32,239.22,240413,,,D*4A","accelData":"-0.02","speedData":"43"},
{"time": "89282","gpsData":"$GPRMC,055315.800,A,3725.9402,N,12210.9294,W,24.23,238.56,240413,,,D*41","accelData":"-0.01","speedData":"43"},
{"time": "89678","gpsData":"$GPRMC,055316.200,A,3725.9389,N,12210.9328,W,23.69,237.83,240413,,,D*44","accelData":"-0.02","speedData":"42"},
{"time": "90081","gpsData":"$GPRMC,055316.600,A,3725.9375,N,12210.9360,W,23.50,237.96,240413,,,D*41","accelData":"-0.02","speedData":"42"},
{"time": "90481","gpsData":"$GPRMC,055317.000,A,3725.9362,N,12210.9390,W,23.27,237.97,240413,,,D*4E","accelData":"-0.01","speedData":"42"},
{"time": "90883","gpsData":"$GPRMC,055317.400,A,3725.9349,N,12210.9420,W,23.28,237.42,240413,,,D*48","accelData":"-0.01","speedData":"44"},
{"time": "91279","gpsData":"$GPRMC,055317.800,A,3725.9335,N,12210.9452,W,23.30,237.62,240413,,,D*41","accelData":"-0.02","speedData":"43"},
{"time": "91680","gpsData":"$GPRMC,055318.200,A,3725.9322,N,12210.9485,W,23.28,238.21,240413,,,D*49","accelData":"0.01","speedData":"42"},
{"time": "92078","gpsData":"$GPRMC,055318.600,A,3725.9308,N,12210.9517,W,23.28,238.46,240413,,,D*4E","accelData":"0.02","speedData":"42"},
{"time": "92478","gpsData":"$GPRMC,055319.000,A,3725.9295,N,12210.9548,W,23.33,238.62,240413,,,D*4A","accelData":"0.02","speedData":"42"},
{"time": "92879","gpsData":"$GPRMC,055319.400,A,3725.9282,N,12210.9580,W,23.37,238.46,240413,,,D*4E","accelData":"0.01","speedData":"42"},
{"time": "93277","gpsData":"$GPRMC,055319.800,A,3725.9271,N,12210.9613,W,23.35,239.16,240413,,,D*41","accelData":"0.00","speedData":"42"},
{"time": "93678","gpsData":"$GPRMC,055320.200,A,3725.9257,N,12210.9644,W,22.96,238.67,240413,,,D*48","accelData":"-0.03","speedData":"42"},
{"time": "94078","gpsData":"$GPRMC,055320.600,A,3725.9243,N,12210.9675,W,22.68,238.53,240413,,,D*4D","accelData":"-0.03","speedData":"42"},
{"time": "94480","gpsData":"$GPRMC,055321.000,A,3725.9228,N,12210.9706,W,22.58,238.52,240413,,,D*40","accelData":"-0.04","speedData":"41"},
{"time": "94877","gpsData":"$GPRMC,055321.400,A,3725.9215,N,12210.9735,W,22.55,238.44,240413,,,D*40","accelData":"-0.04","speedData":"41"},
{"time": "95278","gpsData":"$GPRMC,055321.800,A,3725.9200,N,12210.9765,W,22.55,238.22,240413,,,D*4D","accelData":"-0.05","speedData":"40"},
{"time": "95679","gpsData":"$GPRMC,055322.200,A,3725.9185,N,12210.9795,W,22.22,238.29,240413,,,D*4E","accelData":"-0.05","speedData":"40"},
{"time": "96076","gpsData":"$GPRMC,055322.600,A,3725.9171,N,12210.9825,W,21.89,238.44,240413,,,D*4C","accelData":"-0.04","speedData":"38"},
{"time": "96477","gpsData":"$GPRMC,055323.000,A,3725.9158,N,12210.9853,W,21.20,238.90,240413,,,D*4B","accelData":"-0.03","speedData":"37"},
{"time": "96878","gpsData":"$GPRMC,055323.400,A,3725.9145,N,12210.9880,W,20.91,239.25,240413,,,D*49","accelData":"-0.01","speedData":"37"},
{"time": "97276","gpsData":"$GPRMC,055323.800,A,3725.9132,N,12210.9906,W,20.61,238.96,240413,,,D*4C","accelData":"0.02","speedData":"37"},
{"time": "97677","gpsData":"$GPRMC,055324.200,A,3725.9119,N,12210.9932,W,20.55,238.90,240413,,,D*4E","accelData":"0.05","speedData":"36"},
{"time": "98077","gpsData":"$GPRMC,055324.600,A,3725.9106,N,12210.9958,W,20.64,239.06,240413,,,D*44","accelData":"0.10","speedData":"36"},
{"time": "98475","gpsData":"$GPRMC,055325.000,A,3725.9092,N,12210.9986,W,21.36,239.49,240413,,,D*41","accelData":"0.12","speedData":"38"},
{"time": "98876","gpsData":"$GPRMC,055325.400,A,3725.9078,N,12211.0014,W,22.12,239.50,240413,,,D*46","accelData":"0.14","speedData":"40"},
{"time": "99276","gpsData":"$GPRMC,055325.800,A,3725.9064,N,12211.0042,W,22.66,239.23,240413,,,D*43","accelData":"0.14","speedData":"42"},
{"time": "99678","gpsData":"$GPRMC,055326.200,A,3725.9048,N,12211.0070,W,23.46,238.79,240413,,,D*48","accelData":"0.12","speedData":"45"},
{"time": "100075","gpsData":"$GPRMC,055326.600,A,3725.9033,N,12211.0099,W,23.97,238.20,240413,,,D*47","accelData":"0.11","speedData":"45"},
{"time": "100476","gpsData":"$GPRMC,055327.000,A,3725.9016,N,12211.0129,W,24.57,237.25,240413,,,D*4C","accelData":"0.10","speedData":"48"},
{"time": "100877","gpsData":"$GPRMC,055327.400,A,3725.8998,N,12211.0158,W,25.03,235.83,240413,,,D*4E","accelData":"0.06","speedData":"48"},
{"time": "101274","gpsData":"$GPRMC,055327.800,A,3725.8980,N,12211.0188,W,25.49,234.58,240413,,,D*4F","accelData":"0.01","speedData":"48"},
{"time": "101676","gpsData":"$GPRMC,055328.200,A,3725.8959,N,12211.0217,W,26.07,231.27,240413,,,D*4F","accelData":"-0.02","speedData":"50"},
{"time": "102077","gpsData":"$GPRMC,055328.600,A,3725.8938,N,12211.0244,W,26.18,228.31,240413,,,D*4B","accelData":"-0.04","speedData":"49"},
{"time": "102473","gpsData":"$GPRMC,055329.000,A,3725.8917,N,12211.0271,W,26.34,224.89,240413,,,D*46","accelData":"-0.05","speedData":"48"},
{"time": "102875","gpsData":"$GPRMC,055329.400,A,3725.8895,N,12211.0297,W,26.38,221.69,240413,,,D*46","accelData":"-0.06","speedData":"47"},
{"time": "103273","gpsData":"$GPRMC,055329.800,A,3725.8873,N,12211.0322,W,26.48,219.44,240413,,,D*4E","accelData":"-0.07","speedData":"47"},
{"time": "103672","gpsData":"$GPRMC,055330.200,A,3725.8851,N,12211.0345,W,26.14,217.11,240413,,,D*4A","accelData":"-0.03","speedData":"46"},
{"time": "104074","gpsData":"$GPRMC,055330.600,A,3725.8828,N,12211.0366,W,25.90,215.63,240413,,,D*49","accelData":"0.03","speedData":"45"},
{"time": "104475","gpsData":"$GPRMC,055331.000,A,3725.8805,N,12211.0386,W,25.88,214.00,240413,,,D*42","accelData":"0.00","speedData":"47"},
{"time": "104871","gpsData":"$GPRMC,055331.400,A,3725.8781,N,12211.0406,W,25.85,212.73,240413,,,D*45","accelData":"-0.02","speedData":"46"},
{"time": "105273","gpsData":"$GPRMC,055331.800,A,3725.8757,N,12211.0426,W,25.81,212.32,240413,,,D*41","accelData":"-0.02","speedData":"45"},
{"time": "105676","gpsData":"$GPRMC,055332.200,A,3725.8732,N,12211.0445,W,25.76,211.53,240413,,,D*42","accelData":"-0.04","speedData":"45"},
{"time": "106074","gpsData":"$GPRMC,055332.600,A,3725.8708,N,12211.0465,W,25.68,210.63,240413,,,D*40","accelData":"-0.05","speedData":"45"},
{"time": "106472","gpsData":"$GPRMC,055333.000,A,3725.8684,N,12211.0482,W,25.23,209.61,240413,,,D*4E","accelData":"-0.06","speedData":"45"},
{"time": "106873","gpsData":"$GPRMC,055333.400,A,3725.8659,N,12211.0499,W,24.58,206.99,240413,,,D*45","accelData":"-0.14","speedData":"44"},
{"time": "107274","gpsData":"$GPRMC,055333.800,A,3725.8635,N,12211.0512,W,24.06,204.99,240413,,,D*48","accelData":"-0.21","speedData":"42"},
{"time": "107671","gpsData":"$GPRMC,055334.200,A,3725.8613,N,12211.0525,W,23.12,202.74,240413,,,D*42","accelData":"-0.19","speedData":"40"},
{"time": "108072","gpsData":"$GPRMC,055334.600,A,3725.8592,N,12211.0535,W,21.95,200.81,240413,,,D*48","accelData":"-0.15","speedData":"37"},
{"time": "108474","gpsData":"$GPRMC,055335.000,A,3725.8572,N,12211.0544,W,20.87,198.22,240413,,,D*4E","accelData":"-0.17","speedData":"34"},
{"time": "108874","gpsData":"$GPRMC,055335.400,A,3725.8552,N,12211.0552,W,20.03,196.75,240413,,,D*4F","accelData":"-0.21","speedData":"34"},
{"time": "109272","gpsData":"$GPRMC,055335.800,A,3725.8532,N,12211.0561,W,19.55,196.32,240413,,,D*4F","accelData":"-0.25","speedData":"31"},
{"time": "109673","gpsData":"$GPRMC,055336.200,A,3725.8514,N,12211.0568,W,18.70,196.39,240413,,,D*46","accelData":"-0.30","speedData":"28"},
{"time": "110070","gpsData":"$GPRMC,055336.600,A,3725.8496,N,12211.0575,W,17.90,196.28,240413,,,D*44","accelData":"-0.34","speedData":"24"},
{"time": "110471","gpsData":"$GPRMC,055337.000,A,3725.8480,N,12211.0582,W,16.89,196.93,240413,,,D*45","accelData":"-0.26","speedData":"20"},
{"time": "110872","gpsData":"$GPRMC,055337.400,A,3725.8467,N,12211.0586,W,15.40,197.78,240413,,,D*4E","accelData":"-0.15","speedData":"15"},
{"time": "111273","gpsData":"$GPRMC,055337.800,A,3725.8456,N,12211.0592,W,13.97,200.15,240413,,,D*4F","accelData":"-0.10","speedData":"15"},
{"time": "111674","gpsData":"$GPRMC,055338.200,A,3725.8447,N,12211.0597,W,12.40,205.08,240413,,,D*4D","accelData":"0.02","speedData":"13"},
{"time": "112071","gpsData":"$GPRMC,055338.600,A,3725.8439,N,12211.0599,W,11.22,206.60,240413,,,D*44","accelData":"0.15","speedData":"11"},
{"time": "112468","gpsData":"$GPRMC,055339.000,A,3725.8432,N,12211.0599,W,9.65,205.36,240413,,,D*72","accelData":"0.17","speedData":"13"},
{"time": "112869","gpsData":"$GPRMC,055339.400,A,3725.8425,N,12211.0599,W,8.95,203.50,240413,,,D*78","accelData":"0.17","speedData":"16"},
{"time": "113270","gpsData":"$GPRMC,055339.800,A,3725.8412,N,12211.0604,W,8.99,204.16,240413,,,D*7E","accelData":"0.10","speedData":"19"},
{"time": "113668","gpsData":"$GPRMC,055340.200,A,3725.8401,N,12211.0610,W,9.21,207.82,240413,,,D*71","accelData":"0.11","speedData":"22"},
{"time": "114069","gpsData":"$GPRMC,055340.600,A,3725.8385,N,12211.0625,W,10.45,213.54,240413,,,D*4C","accelData":"0.11","speedData":"22"},
{"time": "114469","gpsData":"$GPRMC,055341.000,A,3725.8374,N,12211.0642,W,11.63,227.72,240413,,,D*42","accelData":"0.13","speedData":"24"},
{"time": "114871","gpsData":"$GPRMC,055341.400,A,3725.8365,N,12211.0655,W,12.76,234.54,240413,,,D*41","accelData":"0.12","speedData":"28"},
{"time": "115268","gpsData":"$GPRMC,055341.800,A,3725.8359,N,12211.0671,W,13.20,240.18,240413,,,D*4D","accelData":"0.14","speedData":"31"},
{"time": "115668","gpsData":"$GPRMC,055342.200,A,3725.8356,N,12211.0691,W,13.80,250.72,240413,,,D*42","accelData":"0.15","speedData":"34"},
{"time": "116070","gpsData":"$GPRMC,055342.600,A,3725.8357,N,12211.0714,W,14.38,259.16,240413,,,D*44","accelData":"0.13","speedData":"37"},
{"time": "116471","gpsData":"$GPRMC,055343.000,A,3725.8363,N,12211.0740,W,15.29,268.62,240413,,,D*45","accelData":"0.09","speedData":"40"},
{"time": "116865","gpsData":"$GPRMC,055343.400,A,3725.8379,N,12211.0771,W,16.53,277.12,240413,,,D*4F","accelData":"0.07","speedData":"40"},
{"time": "117265","gpsData":"$GPRMC,055343.800,A,3725.8402,N,12211.0810,W,21.85,290.20,240413,,,D*47","accelData":"0.05","speedData":"43"},
{"time": "117666","gpsData":"$GPRMC,055344.200,A,3725.8421,N,12211.0848,W,25.25,294.76,240413,,,D*4F","accelData":"0.04","speedData":"45"},
{"time": "118068","gpsData":"$GPRMC,055344.600,A,3725.8435,N,12211.0884,W,26.47,296.98,240413,,,D*4B","accelData":"-0.01","speedData":"47"},
{"time": "118468","gpsData":"$GPRMC,055345.000,A,3725.8455,N,12211.0915,W,26.90,301.08,240413,,,D*4F","accelData":"-0.04","speedData":"46"},
{"time": "118870","gpsData":"$GPRMC,055345.400,A,3725.8473,N,12211.0947,W,27.09,304.49,240413,,,D*49","accelData":"-0.05","speedData":"45"},
{"time": "119267","gpsData":"$GPRMC,055345.800,A,3725.8492,N,12211.0975,W,27.00,307.34,240413,,,D*4B","accelData":"-0.07","speedData":"45"},
{"time": "119667","gpsData":"$GPRMC,055346.200,A,3725.8513,N,12211.1002,W,26.47,310.53,240413,,,D*47","accelData":"-0.05","speedData":"47"},
{"time": "120069","gpsData":"$GPRMC,055346.600,A,3725.8535,N,12211.1026,W,26.12,313.52,240413,,,D*43","accelData":"0.00","speedData":"46"},
{"time": "120470","gpsData":"$GPRMC,055347.000,A,3725.8564,N,12211.1043,W,25.77,318.96,240413,,,D*40","accelData":"0.05","speedData":"45"},
{"time": "120867","gpsData":"$GPRMC,055347.400,A,3725.8589,N,12211.1063,W,25.78,322.32,240413,,,D*4D","accelData":"0.05","speedData":"48"},
{"time": "121264","gpsData":"$GPRMC,055347.800,A,3725.8614,N,12211.1082,W,26.20,325.32,240413,,,D*40","accelData":"0.05","speedData":"48"},
{"time": "121665","gpsData":"$GPRMC,055348.200,A,3725.8639,N,12211.1101,W,26.82,327.52,240413,,,D*4C","accelData":"0.04","speedData":"51"},
{"time": "122066","gpsData":"$GPRMC,055348.600,A,3725.8666,N,12211.1120,W,27.27,329.46,240413,,,D*44","accelData":"0.05","speedData":"51"},
{"time": "122467","gpsData":"$GPRMC,055349.000,A,3725.8694,N,12211.1137,W,27.52,331.34,240413,,,D*46","accelData":"0.01","speedData":"51"},
{"time": "122867","gpsData":"$GPRMC,055349.400,A,3725.8724,N,12211.1150,W,28.08,333.86,240413,,,D*42","accelData":"-0.03","speedData":"53"},
{"time": "123266","gpsData":"$GPRMC,055349.800,A,3725.8758,N,12211.1160,W,28.43,336.05,240413,,,D*47","accelData":"-0.05","speedData":"53"},
{"time": "123667","gpsData":"$GPRMC,055350.200,A,3725.8794,N,12211.1167,W,28.95,338.87,240413,,,D*4D","accelData":"-0.05","speedData":"53"},
{"time": "124063","gpsData":"$GPRMC,055350.600,A,3725.8831,N,12211.1173,W,29.59,342.34,240413,,,D*48","accelData":"-0.07","speedData":"53"},
{"time": "124465","gpsData":"$GPRMC,055351.000,A,3725.8864,N,12211.1184,W,29.64,342.91,240413,,,D*46","accelData":"-0.11","speedData":"52"},
{"time": "124866","gpsData":"$GPRMC,055351.400,A,3725.8895,N,12211.1198,W,29.59,341.82,240413,,,D*4E","accelData":"-0.18","speedData":"52"},
{"time": "125265","gpsData":"$GPRMC,055351.800,A,3725.8923,N,12211.1215,W,29.39,339.44,240413,,,D*4B","accelData":"-0.24","speedData":"51"},
{"time": "125664","gpsData":"$GPRMC,055352.200,A,3725.8952,N,12211.1230,W,27.52,337.65,240413,,,D*4D","accelData":"-0.29","speedData":"49"},
{"time": "126065","gpsData":"$GPRMC,055352.600,A,3725.8979,N,12211.1244,W,26.05,336.65,240413,,,D*41","accelData":"-0.32","speedData":"45"},
{"time": "126466","gpsData":"$GPRMC,055353.000,A,3725.9003,N,12211.1258,W,24.06,335.24,240413,,,D*49","accelData":"-0.33","speedData":"41"},
{"time": "126863","gpsData":"$GPRMC,055353.400,A,3725.9021,N,12211.1275,W,21.95,332.81,240413,,,D*45","accelData":"-0.36","speedData":"36"},
{"time": "127264","gpsData":"$GPRMC,055353.800,A,3725.9039,N,12211.1289,W,19.97,332.35,240413,,,D*45","accelData":"-0.35","speedData":"36"},
{"time": "127666","gpsData":"$GPRMC,055354.200,A,3725.9052,N,12211.1301,W,17.11,331.92,240413,,,D*4A","accelData":"-0.35","speedData":"32"},
{"time": "128063","gpsData":"$GPRMC,055354.600,A,3725.9062,N,12211.1311,W,15.12,330.57,240413,,,D*45","accelData":"-0.39","speedData":"27"},
{"time": "128463","gpsData":"$GPRMC,055355.000,A,3725.9070,N,12211.1315,W,12.16,331.46,240413,,,D*47","accelData":"-0.34","speedData":"22"},
{"time": "128865","gpsData":"$GPRMC,055355.400,A,3725.9073,N,12211.1319,W,9.38,330.52,240413,,,D*7E","accelData":"-0.23","speedData":"16"},
{"time": "129262","gpsData":"$GPRMC,055355.800,A,3725.9080,N,12211.1322,W,8.19,328.77,240413,,,D*7A","accelData":"-0.13","speedData":"12"},
{"time": "129667","gpsData":"$GPRMC,055356.200,A,3725.9086,N,12211.1322,W,6.65,330.19,240413,,,D*71","accelData":"-0.05","speedData":"10"},
{"time": "130064","gpsData":"$GPRMC,055356.600,A,3725.9089,N,12211.1324,W,5.65,331.81,240413,,,D*7F","accelData":"0.07","speedData":"10"},
{"time": "130459","gpsData":"$GPRMC,055357.000,A,3725.9087,N,12211.1327,W,4.11,338.84,240413,,,D*7B","accelData":"0.15","speedData":"9"},
{"time": "130857","gpsData":"$GPRMC,055357.400,A,3725.9091,N,12211.1330,W,4.85,339.96,240413,,,D*71","accelData":"0.22","speedData":"12"},
{"time": "131259","gpsData":"$GPRMC,055357.800,A,3725.9096,N,12211.1332,W,5.80,339.23,240413,,,D*72","accelData":"0.27","speedData":"16"},
{"time": "131660","gpsData":"$GPRMC,055358.200,A,3725.9104,N,12211.1333,W,6.47,340.99,240413,,,D*7B","accelData":"0.23","speedData":"20"},
{"time": "132057","gpsData":"$GPRMC,055358.600,A,3725.9114,N,12211.1333,W,7.81,346.28,240413,,,D*79","accelData":"0.21","speedData":"24"},
{"time": "132462","gpsData":"$GPRMC,055359.000,A,3725.9125,N,12211.1334,W,9.16,348.04,240413,,,D*7B","accelData":"0.21","speedData":"28"},
{"time": "132859","gpsData":"$GPRMC,055359.400,A,3725.9136,N,12211.1334,W,9.40,351.15,240413,,,D*76","accelData":"0.21","speedData":"28"},
{"time": "133260","gpsData":"$GPRMC,055359.800,A,3725.9149,N,12211.1332,W,9.60,356.13,240413,,,D*77","accelData":"0.20","speedData":"31"},
{"time": "133657","gpsData":"$GPRMC,055400.200,A,3725.9162,N,12211.1323,W,9.85,6.70,240413,,,D*77","accelData":"0.21","speedData":"35"},
{"time": "134063","gpsData":"$GPRMC,055400.600,A,3725.9175,N,12211.1314,W,10.11,12.63,240413,,,D*73","accelData":"0.21","speedData":"39"},
{"time": "134460","gpsData":"$GPRMC,055401.000,A,3725.9183,N,12211.1289,W,10.35,21.14,240413,,,D*7E","accelData":"0.20","speedData":"43"},
{"time": "134860","gpsData":"$GPRMC,055401.400,A,3725.9205,N,12211.1246,W,15.77,39.25,240413,,,D*7C","accelData":"0.18","speedData":"46"},
{"time": "135262","gpsData":"$GPRMC,055401.800,A,3725.9220,N,12211.1221,W,16.70,41.05,240413,,,D*7F","accelData":"0.16","speedData":"46"},
{"time": "135663","gpsData":"$GPRMC,055402.200,A,3725.9237,N,12211.1193,W,17.78,42.82,240413,,,D*7F","accelData":"0.16","speedData":"50"},
{"time": "136060","gpsData":"$GPRMC,055402.600,A,3725.9255,N,12211.1164,W,18.92,44.43,240413,,,D*77","accelData":"0.15","speedData":"53"},
{"time": "136461","gpsData":"$GPRMC,055403.000,A,3725.9274,N,12211.1134,W,20.18,45.33,240413,,,D*79","accelData":"0.14","speedData":"55"},
{"time": "136858","gpsData":"$GPRMC,055403.400,A,3725.9296,N,12211.1102,W,21.55,45.82,240413,,,D*76","accelData":"0.11","speedData":"58"},
{"time": "137260","gpsData":"$GPRMC,055403.800,A,3725.9318,N,12211.1071,W,22.94,46.57,240413,,,D*7D","accelData":"0.10","speedData":"61"},
{"time": "137661","gpsData":"$GPRMC,055404.200,A,3725.9343,N,12211.1039,W,24.43,46.61,240413,,,D*7B","accelData":"0.10","speedData":"63"},
{"time": "138057","gpsData":"$GPRMC,055404.600,A,3725.9371,N,12211.1003,W,26.05,46.63,240413,,,D*75","accelData":"0.09","speedData":"63"},
{"time": "138459","gpsData":"$GPRMC,055405.000,A,3725.9400,N,12211.0966,W,27.61,46.97,240413,,,D*70","accelData":"0.06","speedData":"65"},
{"time": "138859","gpsData":"$GPRMC,055405.400,A,3725.9430,N,12211.0925,W,29.58,47.69,240413,,,D*74","accelData":"0.05","speedData":"65"},
{"time": "139259","gpsData":"$GPRMC,055405.800,A,3725.9460,N,12211.0882,W,31.74,48.58,240413,,,D*7B","accelData":"0.04","speedData":"67"},
{"time": "139658","gpsData":"$GPRMC,055406.200,A,3725.9492,N,12211.0836,W,34.54,48.82,240413,,,D*70","accelData":"0.04","speedData":"69"},
{"time": "140058","gpsData":"$GPRMC,055406.600,A,3725.9523,N,12211.0792,W,35.94,48.82,240413,,,D*73","accelData":"0.03","speedData":"69"},
{"time": "140459","gpsData":"$GPRMC,055407.000,A,3725.9553,N,12211.0748,W,36.74,48.28,240413,,,D*79","accelData":"0.02","speedData":"69"},
{"time": "140857","gpsData":"$GPRMC,055407.400,A,3725.9585,N,12211.0705,W,37.63,47.90,240413,,,D*74","accelData":"0.01","speedData":"71"},
{"time": "141258","gpsData":"$GPRMC,055407.800,A,3725.9616,N,12211.0663,W,37.98,47.92,240413,,,D*76","accelData":"0.02","speedData":"70"},
{"time": "141661","gpsData":"$GPRMC,055408.200,A,3725.9647,N,12211.0620,W,38.22,47.66,240413,,,D*75","accelData":"-0.01","speedData":"70"},
{"time": "142056","gpsData":"$GPRMC,055408.600,A,3725.9678,N,12211.0578,W,38.62,47.55,240413,,,D*77","accelData":"-0.03","speedData":"72"},
{"time": "142457","gpsData":"$GPRMC,055409.000,A,3725.9710,N,12211.0536,W,38.92,47.47,240413,,,D*79","accelData":"-0.04","speedData":"71"},
{"time": "142858","gpsData":"$GPRMC,055409.400,A,3725.9741,N,12211.0494,W,39.04,47.06,240413,,,D*7B","accelData":"-0.03","speedData":"70"},
{"time": "143255","gpsData":"$GPRMC,055409.800,A,3725.9773,N,12211.0452,W,39.09,46.85,240413,,,D*7B","accelData":"-0.05","speedData":"71"},
{"time": "143656","gpsData":"$GPRMC,055410.200,A,3725.9804,N,12211.0411,W,38.83,46.82,240413,,,D*75","accelData":"-0.05","speedData":"70"},
{"time": "144058","gpsData":"$GPRMC,055410.600,A,3725.9835,N,12211.0370,W,38.81,47.08,240413,,,D*72","accelData":"-0.05","speedData":"69"},
{"time": "144458","gpsData":"$GPRMC,055411.000,A,3725.9866,N,12211.0328,W,38.92,47.60,240413,,,D*72","accelData":"-0.05","speedData":"69"},
{"time": "144856","gpsData":"$GPRMC,055411.400,A,3725.9896,N,12211.0287,W,39.24,48.09,240413,,,D*71","accelData":"-0.05","speedData":"69"},
{"time": "145257","gpsData":"$GPRMC,055411.800,A,3725.9927,N,12211.0245,W,39.23,48.19,240413,,,D*7E","accelData":"-0.05","speedData":"69"},
{"time": "145653","gpsData":"$GPRMC,055412.200,A,3725.9957,N,12211.0205,W,38.89,47.45,240413,,,D*73","accelData":"-0.05","speedData":"68"},
{"time": "146056","gpsData":"$GPRMC,055412.600,A,3725.9987,N,12211.0165,W,38.25,47.22,240413,,,D*78","accelData":"-0.05","speedData":"68"},
{"time": "146456","gpsData":"$GPRMC,055413.000,A,3726.0016,N,12211.0126,W,37.85,47.14,240413,,,D*73","accelData":"-0.05","speedData":"68"},
{"time": "146852","gpsData":"$GPRMC,055413.400,A,3726.0046,N,12211.0087,W,37.31,47.12,240413,,,D*71","accelData":"-0.05","speedData":"67"},
{"time": "147254","gpsData":"$GPRMC,055413.800,A,3726.0074,N,12211.0048,W,36.64,47.35,240413,,,D*7B","accelData":"-0.05","speedData":"66"},
{"time": "147655","gpsData":"$GPRMC,055414.200,A,3726.0102,N,12211.0010,W,36.00,47.44,240413,,,D*7F","accelData":"-0.04","speedData":"66"},
{"time": "148052","gpsData":"$GPRMC,055414.600,A,3726.0130,N,12210.9972,W,35.73,47.61,240413,,,D*7F","accelData":"-0.05","speedData":"65"},
{"time": "148453","gpsData":"$GPRMC,055415.000,A,3726.0158,N,12210.9935,W,35.50,47.59,240413,,,D*7F","accelData":"-0.04","speedData":"65"},
{"time": "148854","gpsData":"$GPRMC,055415.400,A,3726.0185,N,12210.9898,W,35.39,47.72,240413,,,D*7B","accelData":"-0.05","speedData":"64"},
{"time": "149256","gpsData":"$GPRMC,055415.800,A,3726.0213,N,12210.9859,W,35.36,48.10,240413,,,D*72","accelData":"-0.05","speedData":"64"},
{"time": "149653","gpsData":"$GPRMC,055416.200,A,3726.0240,N,12210.9822,W,34.94,47.83,240413,,,D*7D","accelData":"-0.05","speedData":"64"},
{"time": "150053","gpsData":"$GPRMC,055416.600,A,3726.0267,N,12210.9785,W,34.85,47.60,240413,,,D*73","accelData":"-0.05","speedData":"63"},
{"time": "150455","gpsData":"$GPRMC,055417.000,A,3726.0295,N,12210.9748,W,34.64,47.53,240413,,,D*77","accelData":"-0.05","speedData":"62"},
{"time": "150856","gpsData":"$GPRMC,055417.400,A,3726.0322,N,12210.9711,W,34.56,47.60,240413,,,D*73","accelData":"-0.06","speedData":"62"},
{"time": "151252","gpsData":"$GPRMC,055417.800,A,3726.0349,N,12210.9675,W,34.91,47.54,240413,,,D*7D","accelData":"-0.05","speedData":"62"},
{"time": "151654","gpsData":"$GPRMC,055418.200,A,3726.0375,N,12210.9638,W,35.17,47.78,240413,,,D*7F","accelData":"-0.05","speedData":"61"},
{"time": "152051","gpsData":"$GPRMC,055418.600,A,3726.0401,N,12210.9602,W,35.18,47.71,240413,,,D*70","accelData":"-0.06","speedData":"60"},
{"time": "152456","gpsData":"$GPRMC,055419.000,A,3726.0427,N,12210.9567,W,34.39,47.36,240413,,,D*72","accelData":"-0.07","speedData":"60"},
{"time": "152853","gpsData":"$GPRMC,055419.400,A,3726.0453,N,12210.9532,W,33.67,47.25,240413,,,D*7B","accelData":"-0.15","speedData":"59"},
{"time": "153250","gpsData":"$GPRMC,055419.800,A,3726.0478,N,12210.9498,W,32.67,47.07,240413,,,D*7E","accelData":"-0.21","speedData":"58"},
{"time": "153655","gpsData":"$GPRMC,055420.200,A,3726.0501,N,12210.9466,W,30.97,46.82,240413,,,D*71","accelData":"-0.28","speedData":"54"},
{"time": "154052","gpsData":"$GPRMC,055420.600,A,3726.0524,N,12210.9435,W,29.58,46.92,240413,,,D*7E","accelData":"-0.32","speedData":"54"},
{"time": "154454","gpsData":"$GPRMC,055421.000,A,3726.0545,N,12210.9406,W,27.77,46.45,240413,,,D*77","accelData":"-0.35","speedData":"50"},
{"time": "154851","gpsData":"$GPRMC,055421.400,A,3726.0565,N,12210.9379,W,25.78,45.69,240413,,,D*7E","accelData":"-0.35","speedData":"45"},
{"time": "155251","gpsData":"$GPRMC,055421.800,A,3726.0583,N,12210.9356,W,23.87,45.02,240413,,,D*7C","accelData":"-0.35","speedData":"41"},
{"time": "155653","gpsData":"$GPRMC,055422.200,A,3726.0598,N,12210.9336,W,21.79,44.82,240413,,,D*73","accelData":"-0.33","speedData":"35"},
{"time": "156050","gpsData":"$GPRMC,055422.600,A,3726.0613,N,12210.9318,W,20.12,44.09,240413,,,D*74","accelData":"-0.32","speedData":"30"},
{"time": "156450","gpsData":"$GPRMC,055423.000,A,3726.0628,N,12210.9300,W,18.91,43.22,240413,,,D*7C","accelData":"-0.29","speedData":"30"},
{"time": "156867","gpsData":"$GPRMC,055423.400,A,3726.0637,N,12210.9289,W,16.09,42.89,240413,,,D*79","accelData":"-0.27","speedData":"26"},
{"time": "157249","gpsData":"$GPRMC,055423.800,A,3726.0648,N,12210.9278,W,15.19,42.12,240413,,,D*73","accelData":"-0.27","speedData":"21"},
{"time": "157650","gpsData":"$GPRMC,055424.200,A,3726.0657,N,12210.9268,W,13.92,41.41,240413,,,D*71","accelData":"-0.29","speedData":"17"},
{"time": "158050","gpsData":"$GPRMC,055424.600,A,3726.0661,N,12210.9261,W,11.36,41.80,240413,,,D*78","accelData":"-0.22","speedData":"12"},
{"time": "158452","gpsData":"$GPRMC,055425.000,A,3726.0664,N,12210.9254,W,10.04,40.91,240413,,,D*7D","accelData":"-0.18","speedData":"9"},
{"time": "158850","gpsData":"$GPRMC,055425.400,A,3726.0668,N,12210.9246,W,8.80,40.26,240413,,,D*4F","accelData":"-0.14","speedData":"6"},
{"time": "159250","gpsData":"$GPRMC,055425.800,A,3726.0671,N,12210.9241,W,7.49,39.51,240413,,,D*48","accelData":"-0.11","speedData":"6"},
{"time": "159650","gpsData":"$GPRMC,055426.200,A,3726.0670,N,12210.9237,W,6.13,40.52,240413,,,D*42","accelData":"-0.06","speedData":"3"},
{"time": "160049","gpsData":"$GPRMC,055426.600,A,3726.0670,N,12210.9234,W,4.51,40.96,240413,,,D*49","accelData":"-0.04","speedData":"3"},
{"time": "160449","gpsData":"$GPRMC,055427.000,A,3726.0667,N,12210.9234,W,2.61,40.11,240413,,,D*42","accelData":"-0.02","speedData":"3"},
{"time": "160846","gpsData":"$GPRMC,055427.400,A,3726.0663,N,12210.9237,W,0.09,40.11,240413,,,D*4D","accelData":"-0.02","speedData":"3"},
{"time": "161248","gpsData":"$GPRMC,055427.800,A,3726.0660,N,12210.9239,W,0.04,40.11,240413,,,D*41","accelData":"-0.01","speedData":"3"},
{"time": "161649","gpsData":"$GPRMC,055428.200,A,3726.0656,N,12210.9241,W,0.02,40.11,240413,,,D*48","accelData":"-0.01","speedData":"3"},
{"time": "162046","gpsData":"$GPRMC,055428.600,A,3726.0653,N,12210.9243,W,0.04,40.11,240413,,,D*4D","accelData":"-0.01","speedData":"3"},
{"time": "162451","gpsData":"$GPRMC,055429.000,A,3726.0651,N,12210.9245,W,0.06,40.11,240413,,,D*4C","accelData":"-0.02","speedData":"0"},
{"time": "162848","gpsData":"$GPRMC,055429.400,A,3726.0648,N,12210.9246,W,0.07,40.11,240413,,,D*42","accelData":"-0.01","speedData":"0"},
{"time": "163245","gpsData":"$GPRMC,055429.800,A,3726.0646,N,12210.9248,W,0.08,40.11,240413,,,D*41","accelData":"-0.01","speedData":"0"},
{"time": "163646","gpsData":"$GPRMC,055430.200,A,3726.0644,N,12210.9249,W,0.08,40.11,240413,,,D*40","accelData":"-0.01","speedData":"0"},
{"time": "164047","gpsData":"$GPRMC,055430.600,A,3726.0643,N,12210.9251,W,0.08,40.11,240413,,,D*4A","accelData":"-0.01","speedData":"0"},
{"time": "164449","gpsData":"$GPRMC,055431.000,A,3726.0642,N,12210.9251,W,0.07,40.11,240413,,,D*43","accelData":"-0.02","speedData":"0"},
{"time": "164845","gpsData":"$GPRMC,055431.400,A,3726.0642,N,12210.9252,W,0.00,40.11,240413,,,D*43","accelData":"-0.01","speedData":"0"},
{"time": "165246","gpsData":"$GPRMC,055431.800,A,3726.0642,N,12210.9252,W,0.00,40.11,240413,,,D*4F","accelData":"-0.01","speedData":"0"},
{"time": "165648","gpsData":"$GPRMC,055432.200,A,3726.0642,N,12210.9252,W,0.00,40.11,240413,,,D*46","accelData":"0.00","speedData":"0"},
{"time": "166044","gpsData":"$GPRMC,055432.600,A,3726.0642,N,12210.9252,W,0.00,40.11,240413,,,D*42","accelData":"-0.02","speedData":"0"},
{"time": "166446","gpsData":"$GPRMC,055433.000,A,3726.0642,N,12210.9252,W,0.00,40.11,240413,,,D*45","accelData":"-0.02","speedData":"0"},
{"time": "166843","gpsData":"$GPRMC,055433.400,A,3726.0642,N,12210.9252,W,0.00,40.11,240413,,,D*41","accelData":"-0.01","speedData":"0"},
{"time": "167248","gpsData":"$GPRMC,055433.800,A,3726.0642,N,12210.9252,W,0.00,40.11,240413,,,D*4D","accelData":"0.01","speedData":"0"},
{"time": "167645","gpsData":"$GPRMC,055434.200,A,3726.0642,N,12210.9252,W,0.00,40.11,240413,,,D*40","accelData":"-0.02","speedData":"0"},
{"time": "168042","gpsData":"$GPRMC,055434.600,A,3726.0642,N,12210.9252,W,0.00,40.11,240413,,,D*44","accelData":"-0.02","speedData":"0"},
{"time": "168443","gpsData":"$GPRMC,055435.000,A,3726.0642,N,12210.9252,W,0.00,40.11,240413,,,D*43","accelData":"-0.01","speedData":"0"},
{"time": "168844","gpsData":"$GPRMC,055435.400,A,3726.0642,N,12210.9252,W,0.00,40.11,240413,,,D*47","accelData":"-0.02","speedData":"0"},
{"time": "169241","gpsData":"$GPRMC,055435.800,A,3726.0642,N,12210.9252,W,0.00,40.11,240413,,,D*4B","accelData":"-0.01","speedData":"0"},
{"time": "169643","gpsData":"$GPRMC,055436.200,A,3726.0642,N,12210.9252,W,0.00,40.11,240413,,,D*42","accelData":"-0.02","speedData":"0"},
{"time": "170044","gpsData":"$GPRMC,055436.600,A,3726.0642,N,12210.9252,W,0.00,40.11,240413,,,D*46","accelData":"-0.02","speedData":"0"},
{"time": "170444","gpsData":"$GPRMC,055437.000,A,3726.0642,N,12210.9252,W,0.00,40.11,240413,,,D*41","accelData":"-0.01","speedData":"0"},
{"time": "170842","gpsData":"$GPRMC,055437.400,A,3726.0642,N,12210.9252,W,0.00,40.11,240413,,,D*45","accelData":"-0.01","speedData":"0"},
{"time": "171242","gpsData":"$GPRMC,055437.800,A,3726.0642,N,12210.9252,W,0.00,40.11,240413,,,D*49","accelData":"-0.01","speedData":"0"},
{"time": "171648","gpsData":"$GPRMC,055438.200,A,3726.0642,N,12210.9252,W,0.01,40.11,240413,,,D*4D","accelData":"-0.01","speedData":"0"},
{"time": "172045","gpsData":"$GPRMC,055438.600,A,3726.0642,N,12210.9252,W,0.02,40.11,240413,,,D*4A","accelData":"-0.02","speedData":"0"},
{"time": "172442","gpsData":"$GPRMC,055439.000,A,3726.0641,N,12210.9253,W,0.00,40.11,240413,,,D*4D","accelData":"0.01","speedData":"0"},
{"time": "172843","gpsData":"$GPRMC,055439.400,A,3726.0641,N,12210.9253,W,0.00,40.11,240413,,,D*49","accelData":"-0.01","speedData":"0"},
{"time": "173244","gpsData":"$GPRMC,055439.800,A,3726.0641,N,12210.9253,W,0.00,40.11,240413,,,D*45","accelData":"-0.01","speedData":"0"},
{"time": "173641","gpsData":"$GPRMC,055440.200,A,3726.0641,N,12210.9253,W,0.02,40.11,240413,,,D*43","accelData":"-0.01","speedData":"0"},
{"time": "174042","gpsData":"$GPRMC,055440.600,A,3726.0641,N,12210.9253,W,0.00,40.11,240413,,,D*45","accelData":"-0.01","speedData":"0"},
{"time": "174443","gpsData":"$GPRMC,055441.000,A,3726.0641,N,12210.9253,W,0.00,40.11,240413,,,D*42","accelData":"-0.02","speedData":"0"},
{"time": "174840","gpsData":"$GPRMC,055441.400,A,3726.0641,N,12210.9253,W,0.00,40.11,240413,,,D*46","accelData":"-0.01","speedData":"0"},
{"time": "175242","gpsData":"$GPRMC,055441.800,A,3726.0641,N,12210.9253,W,0.00,40.11,240413,,,D*4A","accelData":"-0.01","speedData":"0"},
{"time": "175642","gpsData":"$GPRMC,055442.200,A,3726.0641,N,12210.9253,W,0.00,40.11,240413,,,D*43","accelData":"0.00","speedData":"0"},
{"time": "176039","gpsData":"$GPRMC,055442.600,A,3726.0641,N,12210.9253,W,0.00,40.11,240413,,,D*47","accelData":"-0.01","speedData":"0"},
{"time": "176441","gpsData":"$GPRMC,055443.000,A,3726.0641,N,12210.9253,W,0.01,40.11,240413,,,D*41","accelData":"-0.01","speedData":"0"},
{"time": "176840","gpsData":"$GPRMC,055443.400,A,3726.0641,N,12210.9253,W,0.02,40.11,240413,,,D*46","accelData":"-0.01","speedData":"0"},
{"time": "177239","gpsData":"$GPRMC,055443.800,A,3726.0641,N,12210.9253,W,0.03,40.11,240413,,,D*4B","accelData":"-0.01","speedData":"0"},
{"time": "177640","gpsData":"$GPRMC,055444.200,A,3726.0641,N,12210.9254,W,0.04,40.11,240413,,,D*46","accelData":"-0.02","speedData":"0"},
{"time": "178040","gpsData":"$GPRMC,055444.600,A,3726.0641,N,12210.9254,W,0.05,40.11,240413,,,D*43","accelData":"-0.01","speedData":"0"},
{"time": "178438","gpsData":"$GPRMC,055445.000,A,3726.0640,N,12210.9255,W,0.05,40.11,240413,,,D*44","accelData":"-0.02","speedData":"0"},
{"time": "178839","gpsData":"$GPRMC,055445.400,A,3726.0640,N,12210.9255,W,0.06,40.11,240413,,,D*43","accelData":"-0.02","speedData":"0"},
{"time": "179236","gpsData":"$GPRMC,055445.800,A,3726.0640,N,12210.9256,W,0.05,40.11,240413,,,D*4F","accelData":"-0.01","speedData":"0"},
{"time": "179637","gpsData":"$GPRMC,055446.200,A,3726.0640,N,12210.9257,W,0.05,40.11,240413,,,D*47","accelData":"-0.02","speedData":"0"},
{"time": "180038","gpsData":"$GPRMC,055446.600,A,3726.0639,N,12210.9257,W,0.00,40.11,240413,,,D*48","accelData":"-0.01","speedData":"0"},
{"time": "180440","gpsData":"$GPRMC,055447.000,A,3726.0639,N,12210.9257,W,0.00,40.11,240413,,,D*4F","accelData":"-0.02","speedData":"0"},
{"time": "180836","gpsData":"$GPRMC,055447.400,A,3726.0639,N,12210.9257,W,0.00,40.11,240413,,,D*4B","accelData":"-0.02","speedData":"0"},
{"time": "181237","gpsData":"$GPRMC,055447.800,A,3726.0639,N,12210.9257,W,0.00,40.11,240413,,,D*47","accelData":"-0.01","speedData":"0"},
{"time": "181639","gpsData":"$GPRMC,055448.200,A,3726.0639,N,12210.9257,W,0.00,40.11,240413,,,D*42","accelData":"-0.02","speedData":"0"},
{"time": "182036","gpsData":"$GPRMC,055448.600,A,3726.0639,N,12210.9257,W,0.00,40.11,240413,,,D*46","accelData":"-0.02","speedData":"0"},
{"time": "182436","gpsData":"$GPRMC,055449.000,A,3726.0639,N,12210.9257,W,0.00,40.11,240413,,,D*41","accelData":"-0.01","speedData":"0"},
{"time": "182838","gpsData":"$GPRMC,055449.400,A,3726.0639,N,12210.9257,W,0.00,40.11,240413,,,D*45","accelData":"-0.02","speedData":"0"},
{"time": "183239","gpsData":"$GPRMC,055449.800,A,3726.0639,N,12210.9257,W,0.00,40.11,240413,,,D*49","accelData":"-0.01","speedData":"0"},
{"time": "183640","gpsData":"$GPRMC,055450.200,A,3726.0639,N,12210.9257,W,0.01,40.11,240413,,,D*4A","accelData":"-0.02","speedData":"0"},
{"time": "184037","gpsData":"$GPRMC,055450.600,A,3726.0639,N,12210.9258,W,0.02,40.11,240413,,,D*42","accelData":"-0.01","speedData":"0"},
{"time": "184438","gpsData":"$GPRMC,055451.000,A,3726.0639,N,12210.9258,W,0.02,40.11,240413,,,D*45","accelData":"-0.01","speedData":"0"},
{"time": "184835","gpsData":"$GPRMC,055451.400,A,3726.0639,N,12210.9258,W,0.23,40.11,240413,,,D*42","accelData":"0.00","speedData":"0"},
{"time": "185236","gpsData":"$GPRMC,055451.800,A,3726.0638,N,12210.9258,W,0.24,40.11,240413,,,D*48","accelData":"-0.01","speedData":"0"},
{"time": "185637","gpsData":"$GPRMC,055452.200,A,3726.0638,N,12210.9258,W,0.28,215.25,240413,,,D*78","accelData":"-0.01","speedData":"0"},
{"time": "186035","gpsData":"$GPRMC,055452.600,A,3726.0638,N,12210.9259,W,0.27,212.30,240413,,,D*71","accelData":"-0.01","speedData":"0"},
{"time": "186435","gpsData":"$GPRMC,055453.000,A,3726.0638,N,12210.9259,W,0.32,213.30,240413,,,D*73","accelData":"-0.01","speedData":"0"},
{"time": "186836","gpsData":"$GPRMC,055453.400,A,3726.0637,N,12210.9259,W,0.33,213.18,240413,,,D*73","accelData":"0.01","speedData":"0"},
{"time": "187238","gpsData":"$GPRMC,055453.800,A,3726.0637,N,12210.9259,W,0.32,213.34,240413,,,D*70","accelData":"0.02","speedData":"0"},
{"time": "187634","gpsData":"$GPRMC,055454.200,A,3726.0637,N,12210.9260,W,0.29,213.24,240413,,,D*7C","accelData":"0.04","speedData":"0"},
{"time": "188036","gpsData":"$GPRMC,055454.600,A,3726.0636,N,12210.9260,W,0.26,212.43,240413,,,D*76","accelData":"0.14","speedData":"0"},
{"time": "188437","gpsData":"$GPRMC,055455.000,A,3726.0636,N,12210.9260,W,0.18,210.27,240413,,,D*7C","accelData":"0.22","speedData":"0"},
{"time": "188834","gpsData":"$GPRMC,055455.400,A,3726.0636,N,12210.9260,W,0.35,204.53,240413,,,D*71","accelData":"0.31","speedData":"4"},
{"time": "189236","gpsData":"$GPRMC,055455.800,A,3726.0636,N,12210.9259,W,0.00,202.41,240413,,,D*74","accelData":"0.32","speedData":"8"},
{"time": "189640","gpsData":"$GPRMC,055456.200,A,3726.0636,N,12210.9259,W,0.84,195.39,240413,,,D*73","accelData":"0.32","speedData":"13"},
{"time": "190038","gpsData":"$GPRMC,055456.600,A,3726.0637,N,12210.9257,W,0.00,195.39,240413,,,D*74","accelData":"0.27","speedData":"18"},
{"time": "190438","gpsData":"$GPRMC,055457.000,A,3726.0637,N,12210.9257,W,0.00,195.39,240413,,,D*73","accelData":"0.24","speedData":"24"},
{"time": "190835","gpsData":"$GPRMC,055457.400,A,3726.0637,N,12210.9257,W,0.00,195.39,240413,,,D*77","accelData":"0.23","speedData":"28"},
{"time": "191233","gpsData":"$GPRMC,055457.800,A,3726.0637,N,12210.9257,W,0.00,195.39,240413,,,D*7B","accelData":"0.23","speedData":"28"},
{"time": "191634","gpsData":"$GPRMC,055458.200,A,3726.0637,N,12210.9257,W,0.00,195.39,240413,,,D*7E","accelData":"0.23","speedData":"31"},
{"time": "192034","gpsData":"$GPRMC,055458.600,A,3726.0637,N,12210.9257,W,0.00,195.39,240413,,,D*7A","accelData":"0.21","speedData":"35"},
{"time": "192440","gpsData":"$GPRMC,055459.000,A,3726.0637,N,12210.9257,W,0.00,195.39,240413,,,D*7D","accelData":"0.18","speedData":"39"},
{"time": "192840","gpsData":"$GPRMC,055459.400,A,3726.0637,N,12210.9257,W,0.00,195.39,240413,,,D*79","accelData":"0.18","speedData":"42"},
{"time": "193229","gpsData":"$GPRMC,055459.800,A,3726.0637,N,12210.9257,W,0.00,195.39,240413,,,D*75","accelData":"0.17","speedData":"44"},
{"time": "193635","gpsData":"$GPRMC,055500.200,A,3726.0637,N,12210.9257,W,0.00,195.39,240413,,,D*72","accelData":"0.16","speedData":"44"},
{"time": "194032","gpsData":"$GPRMC,055500.600,A,3726.0637,N,12210.9257,W,0.00,195.39,240413,,,D*76","accelData":"0.15","speedData":"47"},
{"time": "194429","gpsData":"$GPRMC,055501.000,A,3726.0636,N,12210.9256,W,5.66,103.63,240413,,,D*74","accelData":"0.15","speedData":"50"},
{"time": "194829","gpsData":"$GPRMC,055501.400,A,3726.0639,N,12210.9240,W,7.40,91.15,240413,,,D*45","accelData":"0.14","speedData":"53"},
{"time": "195231","gpsData":"$GPRMC,055501.800,A,3726.0643,N,12210.9221,W,8.70,85.48,240413,,,D*42","accelData":"0.14","speedData":"55"},
{"time": "195637","gpsData":"$GPRMC,055502.200,A,3726.0652,N,12210.9191,W,11.17,79.23,240413,,,D*74","accelData":"0.12","speedData":"57"},
{"time": "196033","gpsData":"$GPRMC,055502.600,A,3726.0664,N,12210.9164,W,12.61,74.53,240413,,,D*77","accelData":"0.10","speedData":"60"},
{"time": "196434","gpsData":"$GPRMC,055503.000,A,3726.0678,N,12210.9134,W,14.32,71.35,240413,,,D*7D","accelData":"0.08","speedData":"60"},
{"time": "196834","gpsData":"$GPRMC,055503.400,A,3726.0700,N,12210.9100,W,16.29,67.27,240413,,,D*7C","accelData":"0.08","speedData":"60"},
{"time": "197233","gpsData":"$GPRMC,055503.800,A,3726.0723,N,12210.9067,W,17.92,64.17,240413,,,D*70","accelData":"0.06","speedData":"63"},
{"time": "197629","gpsData":"$GPRMC,055504.200,A,3726.0750,N,12210.9030,W,19.96,61.01,240413,,,D*73","accelData":"0.06","speedData":"63"},
{"time": "198031","gpsData":"$GPRMC,055504.600,A,3726.0773,N,12210.8996,W,21.52,58.13,240413,,,D*78","accelData":"0.07","speedData":"65"},
{"time": "198432","gpsData":"$GPRMC,055505.000,A,3726.0799,N,12210.8960,W,23.25,56.27,240413,,,D*79","accelData":"0.06","speedData":"65"},
{"time": "198829","gpsData":"$GPRMC,055505.400,A,3726.0823,N,12210.8922,W,24.74,55.54,240413,,,D*71","accelData":"0.06","speedData":"65"},
{"time": "199230","gpsData":"$GPRMC,055505.800,A,3726.0848,N,12210.8885,W,25.91,54.53,240413,,,D*70","accelData":"0.05","speedData":"65"},
{"time": "199631","gpsData":"$GPRMC,055506.200,A,3726.0902,N,12210.8827,W,30.95,51.43,240413,,,D*7A","accelData":"0.05","speedData":"67"},
{"time": "200028","gpsData":"$GPRMC,055506.600,A,3726.0953,N,12210.8771,W,33.32,50.21,240413,,,D*7D","accelData":"0.04","speedData":"69"},
{"time": "200429","gpsData":"$GPRMC,055507.000,A,3726.1002,N,12210.8716,W,35.17,48.99,240413,,,D*7C","accelData":"0.04","speedData":"71"},
{"time": "200830","gpsData":"$GPRMC,055507.400,A,3726.1047,N,12210.8664,W,36.18,48.23,240413,,,D*70","accelData":"0.05","speedData":"70"},
{"time": "201231","gpsData":"$GPRMC,055507.800,A,3726.1081,N,12210.8620,W,36.40,47.35,240413,,,D*73","accelData":"0.04","speedData":"70"},
{"time": "201632","gpsData":"$GPRMC,055508.200,A,3726.1122,N,12210.8571,W,36.94,46.84,240413,,,D*7B","accelData":"0.05","speedData":"70"},
{"time": "202030","gpsData":"$GPRMC,055508.600,A,3726.1163,N,12210.8521,W,37.63,46.94,240413,,,D*77","accelData":"0.05","speedData":"72"},
{"time": "202435","gpsData":"$GPRMC,055509.000,A,3726.1204,N,12210.8470,W,38.21,47.18,240413,,,D*7B","accelData":"0.09","speedData":"72"},
{"time": "202831","gpsData":"$GPRMC,055509.400,A,3726.1249,N,12210.8417,W,39.18,46.94,240413,,,D*79","accelData":"0.10","speedData":"75"},
{"time": "203229","gpsData":"$GPRMC,055509.800,A,3726.1295,N,12210.8365,W,40.07,46.81,240413,,,D*72","accelData":"0.10","speedData":"75"},
{"time": "203630","gpsData":"$GPRMC,055510.200,A,3726.1339,N,12210.8314,W,40.86,46.69,240413,,,D*7E","accelData":"0.10","speedData":"78"},
{"time": "204027","gpsData":"$GPRMC,055510.600,A,3726.1384,N,12210.8262,W,42.10,46.58,240413,,,D*73","accelData":"0.09","speedData":"78"},
{"time": "204428","gpsData":"$GPRMC,055511.000,A,3726.1428,N,12210.8209,W,43.45,46.75,240413,,,D*76","accelData":"0.02","speedData":"78"},
{"time": "204829","gpsData":"$GPRMC,055511.400,A,3726.1469,N,12210.8157,W,44.38,46.70,240413,,,D*77","accelData":"0.01","speedData":"80"},
{"time": "205227","gpsData":"$GPRMC,055511.800,A,3726.1509,N,12210.8105,W,44.78,46.66,240413,,,D*78","accelData":"-0.02","speedData":"80"},
{"time": "205627","gpsData":"$GPRMC,055512.200,A,3726.1549,N,12210.8054,W,44.98,46.54,240413,,,D*7F","accelData":"-0.04","speedData":"80"},
{"time": "206028","gpsData":"$GPRMC,055512.600,A,3726.1589,N,12210.8003,W,45.23,46.92,240413,,,D*7E","accelData":"-0.04","speedData":"80"},
{"time": "206426","gpsData":"$GPRMC,055513.000,A,3726.1627,N,12210.7952,W,45.17,47.40,240413,,,D*75","accelData":"-0.05","speedData":"79"},
{"time": "206826","gpsData":"$GPRMC,055513.400,A,3726.1664,N,12210.7902,W,44.53,47.57,240413,,,D*74","accelData":"-0.05","speedData":"78"},
{"time": "207227","gpsData":"$GPRMC,055513.800,A,3726.1701,N,12210.7853,W,43.76,47.90,240413,,,D*74","accelData":"-0.05","speedData":"78"},
{"time": "207629","gpsData":"$GPRMC,055514.200,A,3726.1737,N,12210.7804,W,42.82,47.78,240413,,,D*72","accelData":"-0.06","speedData":"78"},
{"time": "208026","gpsData":"$GPRMC,055514.600,A,3726.1773,N,12210.7757,W,42.12,47.75,240413,,,D*7B","accelData":"-0.06","speedData":"77"},
{"time": "208432","gpsData":"$GPRMC,055515.000,A,3726.1808,N,12210.7709,W,41.67,47.71,240413,,,D*71","accelData":"-0.06","speedData":"77"},
{"time": "208829","gpsData":"$GPRMC,055515.400,A,3726.1843,N,12210.7662,W,41.02,47.95,240413,,,D*7F","accelData":"-0.05","speedData":"76"},
{"time": "209225","gpsData":"$GPRMC,055515.800,A,3726.1878,N,12210.7616,W,40.93,47.69,240413,,,D*72","accelData":"-0.07","speedData":"75"},
{"time": "209626","gpsData":"$GPRMC,055516.200,A,3726.1913,N,12210.7569,W,40.57,47.68,240413,,,D*75","accelData":"-0.07","speedData":"75"},
{"time": "210027","gpsData":"$GPRMC,055516.600,A,3726.1948,N,12210.7523,W,40.53,47.57,240413,,,D*79","accelData":"-0.07","speedData":"75"},
