{
"driveData":[
{"time": "416339","gpsData":"$GPRMC,080005.400,A,3725.8334,N,12211.0469,W,0.00,202.19,020513,,,A*7D","accelData":"-0.01","speedData":"0"},
{"time": "416739","gpsData":"$GPRMC,080005.800,A,3725.8334,N,12211.0469,W,0.00,202.19,020513,,,A*71","accelData":"-0.02","speedData":"0"},
{"time": "417137","gpsData":"$GPRMC,080006.200,A,3725.8334,N,12211.0469,W,0.00,202.19,020513,,,A*78","accelData":"-0.02","speedData":"0"},
{"time": "417532","gpsData":"$GPRMC,080006.600,A,3725.8334,N,12211.0469,W,0.00,202.19,020513,,,A*7C","accelData":"-0.02","speedData":"0"},
{"time": "417933","gpsData":"$GPRMC,080007.000,A,3725.8334,N,12211.0469,W,0.00,202.19,020513,,,A*7B","accelData":"-0.01","speedData":"0"},
{"time": "418331","gpsData":"$GPRMC,080007.400,A,3725.8334,N,12211.0469,W,0.00,202.19,020513,,,A*7F","accelData":"-0.02","speedData":"0"},
{"time": "418726","gpsData":"$GPRMC,080007.800,A,3725.8334,N,12211.0469,W,0.00,202.19,020513,,,A*73","accelData":"-0.02","speedData":"0"},
{"time": "419127","gpsData":"$GPRMC,080008.200,A,3725.8334,N,12211.0469,W,0.01,202.19,020513,,,A*77","accelData":"-0.02","speedData":"0"},
{"time": "419525","gpsData":"$GPRMC,080008.600,A,3725.8334,N,12211.0469,W,0.00,202.19,020513,,,A*72","accelData":"-0.04","speedData":"0"},
{"time": "419924","gpsData":"$GPRMC,080009.000,A,3725.8334,N,12211.0469,W,0.01,202.19,020513,,,A*74","accelData":"-0.02","speedData":"0"},
{"time": "420320","gpsData":"$GPRMC,080009.400,A,3725.8334,N,12211.0469,W,0.01,202.19,020513,,,A*70","accelData":"-0.02","speedData":"0"},
{"time": "420719","gpsData":"$GPRMC,080009.800,A,3725.8335,N,12211.0469,W,0.02,202.19,020513,,,A*7E","accelData":"-0.04","speedData":"0"},
{"time": "421118","gpsData":"$GPRMC,080010.200,A,3725.8335,N,12211.0469,W,0.02,202.19,020513,,,A*7C","accelData":"-0.04","speedData":"0"},
{"time": "421515","gpsData":"$GPRMC,080010.600,A,3725.8335,N,12211.0469,W,0.00,202.19,020513,,,A*7A","accelData":"-0.02","speedData":"0"},
{"time": "421913","gpsData":"$GPRMC,080011.000,A,3725.8335,N,12211.0469,W,0.01,202.19,020513,,,A*7C","accelData":"-0.02","speedData":"0"},
{"time": "422308","gpsData":"$GPRMC,080011.400,A,3725.8336,N,12211.0469,W,0.15,202.19,020513,,,A*7E","accelData":"-0.02","speedData":"0"},
{"time": "422708","gpsData":"$GPRMC,080011.800,A,3725.8336,N,12211.0469,W,0.00,202.19,020513,,,A*76","accelData":"-0.01","speedData":"0"},
{"time": "423107","gpsData":"$GPRMC,080012.200,A,3725.8336,N,12211.0469,W,0.17,202.19,020513,,,A*79","accelData":"-0.02","speedData":"0"},
{"time": "423506","gpsData":"$GPRMC,080012.600,A,3725.8336,N,12211.0470,W,0.36,202.19,020513,,,A*76","accelData":"-0.02","speedData":"0"},
{"time": "423902","gpsData":"$GPRMC,080013.000,A,3725.8336,N,12211.0470,W,0.44,202.19,020513,,,A*74","accelData":"-0.02","speedData":"0"},
{"time": "424301","gpsData":"$GPRMC,080013.400,A,3725.8337,N,12211.0471,W,0.48,202.19,020513,,,A*7C","accelData":"-0.02","speedData":"0"},
{"time": "424700","gpsData":"$GPRMC,080013.800,A,3725.8337,N,12211.0471,W,0.58,202.19,020513,,,A*71","accelData":"-0.02","speedData":"0"},
{"time": "425104","gpsData":"$GPRMC,080014.200,A,3725.8338,N,12211.0472,W,0.71,202.19,020513,,,A*7B","accelData":"-0.03","speedData":"0"},
{"time": "425495","gpsData":"$GPRMC,080014.600,A,3725.8338,N,12211.0473,W,0.74,202.19,020513,,,A*7B","accelData":"-0.02","speedData":"0"},
{"time": "425894","gpsData":"$GPRMC,080015.000,A,3725.8339,N,12211.0473,W,0.78,202.19,020513,,,A*71","accelData":"-0.02","speedData":"0"},
{"time": "426294","gpsData":"$GPRMC,080015.400,A,3725.8340,N,12211.0474,W,0.84,202.19,020513,,,A*7F","accelData":"-0.02","speedData":"0"},
{"time": "426693","gpsData":"$GPRMC,080015.800,A,3725.8340,N,12211.0474,W,0.00,202.19,020513,,,A*7F","accelData":"-0.01","speedData":"0"},
{"time": "427088","gpsData":"$GPRMC,080016.200,A,3725.8340,N,12211.0474,W,0.00,202.19,020513,,,A*76","accelData":"-0.01","speedData":"0"},
{"time": "427488","gpsData":"$GPRMC,080016.600,A,3725.8340,N,12211.0474,W,0.00,202.19,020513,,,A*72","accelData":"-0.01","speedData":"0"},
{"time": "427887","gpsData":"$GPRMC,080017.000,A,3725.8340,N,12211.0474,W,0.00,202.19,020513,,,A*75","accelData":"-0.03","speedData":"0"},
{"time": "428286","gpsData":"$GPRMC,080017.400,A,3725.8340,N,12211.0474,W,0.00,202.19,020513,,,A*71","accelData":"-0.06","speedData":"0"},
{"time": "428682","gpsData":"$GPRMC,080017.800,A,3725.8340,N,12211.0474,W,0.00,202.19,020513,,,A*7D","accelData":"-0.05","speedData":"0"},
{"time": "429078","gpsData":"$GPRMC,080018.200,A,3725.8340,N,12211.0474,W,0.00,202.19,020513,,,A*78","accelData":"-0.06","speedData":"0"},
{"time": "429479","gpsData":"$GPRMC,080018.600,A,3725.8340,N,12211.0474,W,0.00,202.19,020513,,,A*7C","accelData":"-0.09","speedData":"0"},
{"time": "429872","gpsData":"$GPRMC,080019.000,A,3725.8340,N,12211.0474,W,0.00,202.19,020513,,,A*7B","accelData":"-0.11","speedData":"0"},
{"time": "430274","gpsData":"$GPRMC,080019.400,A,3725.8340,N,12211.0474,W,0.00,202.19,020513,,,A*7F","accelData":"-0.11","speedData":"0"},
{"time": "430670","gpsData":"$GPRMC,080019.800,A,3725.8340,N,12211.0474,W,0.00,202.19,020513,,,A*73","accelData":"-0.12","speedData":"3"},
{"time": "431070","gpsData":"$GPRMC,080020.200,A,3725.8340,N,12211.0474,W,0.00,202.19,020513,,,A*73","accelData":"-0.13","speedData":"3"},
{"time": "431465","gpsData":"$GPRMC,080020.600,A,3725.8340,N,12211.0474,W,0.00,202.19,020513,,,A*77","accelData":"-0.14","speedData":"5"},
{"time": "431864","gpsData":"$GPRMC,080021.000,A,3725.8340,N,12211.0474,W,0.00,202.19,020513,,,A*70","accelData":"-0.14","speedData":"7"},
{"time": "432264","gpsData":"$GPRMC,080021.400,A,3725.8340,N,12211.0474,W,0.00,202.19,020513,,,A*74","accelData":"-0.14","speedData":"9"},
{"time": "432663","gpsData":"$GPRMC,080021.800,A,3725.8340,N,12211.0474,W,0.00,202.19,020513,,,A*78","accelData":"-0.13","speedData":"11"},
{"time": "433058","gpsData":"$GPRMC,080022.200,A,3725.8340,N,12211.0474,W,0.00,202.19,020513,,,A*71","accelData":"-0.11","speedData":"11"},
{"time": "433458","gpsData":"$GPRMC,080022.600,A,3725.8340,N,12211.0474,W,0.00,202.19,020513,,,A*75","accelData":"-0.12","speedData":"11"},
{"time": "433863","gpsData":"$GPRMC,080023.000,A,3725.8340,N,12211.0474,W,0.00,202.19,020513,,,A*72","accelData":"-0.10","speedData":"13"},
{"time": "434252","gpsData":"$GPRMC,080023.400,A,3725.8340,N,12211.0474,W,0.00,202.19,020513,,,A*76","accelData":"-0.07","speedData":"15"},
{"time": "434652","gpsData":"$GPRMC,080023.800,A,3725.8340,N,12211.0474,W,0.00,202.19,020513,,,A*7A","accelData":"-0.08","speedData":"15"},
{"time": "435050","gpsData":"$GPRMC,080024.200,A,3725.8340,N,12211.0474,W,0.00,202.19,020513,,,A*77","accelData":"-0.07","speedData":"17"},
{"time": "435449","gpsData":"$GPRMC,080024.600,A,3725.8340,N,12211.0475,W,0.33,202.19,020513,,,A*72","accelData":"-0.11","speedData":"17"},
{"time": "435850","gpsData":"$GPRMC,080025.000,A,3725.8335,N,12211.0478,W,3.70,235.47,020513,,,A*71","accelData":"-0.13","speedData":"17"},
{"time": "436248","gpsData":"$GPRMC,080025.400,A,3725.8333,N,12211.0478,W,3.98,232.12,020513,,,A*72","accelData":"-0.13","speedData":"17"},
{"time": "436643","gpsData":"$GPRMC,080025.800,A,3725.8332,N,12211.0482,W,4.09,233.44,020513,,,A*77","accelData":"-0.13","speedData":"19"},
{"time": "437043","gpsData":"$GPRMC,080026.200,A,3725.8330,N,12211.0486,W,4.06,236.57,020513,,,A*70","accelData":"-0.14","speedData":"22"},
{"time": "437442","gpsData":"$GPRMC,080026.600,A,3725.8329,N,12211.0491,W,4.00,240.59,020513,,,A*73","accelData":"-0.14","speedData":"25"},
{"time": "437837","gpsData":"$GPRMC,080027.000,A,3725.8329,N,12211.0495,W,3.78,247.14,020513,,,A*76","accelData":"-0.13","speedData":"27"},
{"time": "438244","gpsData":"$GPRMC,080027.400,A,3725.8330,N,12211.0498,W,4.00,254.82,020513,,,A*72","accelData":"-0.14","speedData":"29"},
{"time": "438636","gpsData":"$GPRMC,080027.800,A,3725.8332,N,12211.0502,W,4.35,262.07,020513,,,A*70","accelData":"-0.14","speedData":"29"},
{"time": "439035","gpsData":"$GPRMC,080028.200,A,3725.8334,N,12211.0510,W,4.81,268.72,020513,,,A*77","accelData":"-0.15","speedData":"29"},
{"time": "439431","gpsData":"$GPRMC,080028.600,A,3725.8336,N,12211.0524,W,5.67,273.97,020513,,,A*7E","accelData":"-0.12","speedData":"31"},
{"time": "439830","gpsData":"$GPRMC,080029.000,A,3725.8348,N,12211.0533,W,6.54,279.79,020513,,,A*7F","accelData":"-0.09","speedData":"34"},
{"time": "440229","gpsData":"$GPRMC,080029.400,A,3725.8361,N,12211.0547,W,7.86,286.15,020513,,,A*77","accelData":"-0.07","speedData":"36"},
{"time": "440625","gpsData":"$GPRMC,080029.800,A,3725.8375,N,12211.0562,W,8.93,290.19,020513,,,A*79","accelData":"-0.07","speedData":"36"},
{"time": "441024","gpsData":"$GPRMC,080030.200,A,3725.8387,N,12211.0590,W,10.38,291.21,020513,,,A*49","accelData":"-0.06","speedData":"36"},
{"time": "441424","gpsData":"$GPRMC,080030.600,A,3725.8398,N,12211.0629,W,12.55,289.99,020513,,,A*41","accelData":"-0.04","speedData":"36"},
{"time": "441820","gpsData":"$GPRMC,080031.000,A,3725.8407,N,12211.0655,W,13.31,290.50,020513,,,A*42","accelData":"-0.06","speedData":"38"},
{"time": "442218","gpsData":"$GPRMC,080031.400,A,3725.8416,N,12211.0683,W,14.43,290.86,020513,,,A*44","accelData":"-0.07","speedData":"38"},
{"time": "442617","gpsData":"$GPRMC,080031.800,A,3725.8428,N,12211.0714,W,15.14,294.31,020513,,,A*41","accelData":"-0.07","speedData":"38"},
{"time": "443017","gpsData":"$GPRMC,080032.200,A,3725.8441,N,12211.0750,W,15.79,296.47,020513,,,A*4F","accelData":"-0.06","speedData":"38"},
{"time": "443412","gpsData":"$GPRMC,080032.600,A,3725.8469,N,12211.0773,W,16.81,307.33,020513,,,A*4E","accelData":"-0.06","speedData":"40"},
{"time": "443811","gpsData":"$GPRMC,080033.000,A,3725.8492,N,12211.0782,W,16.85,312.68,020513,,,A*4D","accelData":"-0.03","speedData":"40"},
{"time": "444209","gpsData":"$GPRMC,080033.400,A,3725.8514,N,12211.0794,W,17.06,317.16,020513,,,A*47","accelData":"0.00","speedData":"40"},
{"time": "444606","gpsData":"$GPRMC,080033.800,A,3725.8540,N,12211.0813,W,17.60,319.81,020513,,,A*4A","accelData":"0.02","speedData":"42"},
{"time": "445005","gpsData":"$GPRMC,080034.200,A,3725.8567,N,12211.0833,W,18.31,322.10,020513,,,A*4B","accelData":"0.02","speedData":"42"},
{"time": "445405","gpsData":"$GPRMC,080034.600,A,3725.8594,N,12211.0855,W,19.41,325.02,020513,,,A*41","accelData":"0.03","speedData":"41"},
{"time": "445804","gpsData":"$GPRMC,080035.000,A,3725.8618,N,12211.0874,W,19.93,326.19,020513,,,A*44","accelData":"0.04","speedData":"40"},
{"time": "446199","gpsData":"$GPRMC,080035.400,A,3725.8646,N,12211.0888,W,20.47,329.93,020513,,,A*46","accelData":"0.04","speedData":"39"},
{"time": "446598","gpsData":"$GPRMC,080035.800,A,3725.8676,N,12211.0904,W,20.74,334.18,020513,,,A*43","accelData":"0.04","speedData":"40"},
{"time": "446994","gpsData":"$GPRMC,080036.200,A,3725.8704,N,12211.0922,W,21.02,336.28,020513,,,A*4B","accelData":"0.04","speedData":"39"},
{"time": "447396","gpsData":"$GPRMC,080036.600,A,3725.8734,N,12211.0939,W,21.26,338.88,020513,,,A*44","accelData":"0.06","speedData":"39"},
{"time": "447792","gpsData":"$GPRMC,080037.000,A,3725.8763,N,12211.0953,W,21.28,340.50,020513,,,A*49","accelData":"0.07","speedData":"38"},
{"time": "448192","gpsData":"$GPRMC,080037.400,A,3725.8789,N,12211.0965,W,21.03,342.15,020513,,,A*46","accelData":"0.08","speedData":"38"},
{"time": "448587","gpsData":"$GPRMC,080037.800,A,3725.8814,N,12211.0977,W,20.77,342.81,020513,,,A*4D","accelData":"0.06","speedData":"37"},
{"time": "448987","gpsData":"$GPRMC,080038.200,A,3725.8839,N,12211.0990,W,20.65,342.53,020513,,,A*42","accelData":"0.07","speedData":"37"},
{"time": "449382","gpsData":"$GPRMC,080038.600,A,3725.8862,N,12211.1004,W,20.39,340.99,020513,,,A*40","accelData":"0.12","speedData":"35"},
{"time": "449781","gpsData":"$GPRMC,080039.000,A,3725.8885,N,12211.1017,W,20.17,339.90,020513,,,A*47","accelData":"0.15","speedData":"34"},
{"time": "450180","gpsData":"$GPRMC,080039.400,A,3725.8908,N,12211.1034,W,20.21,337.51,020513,,,A*40","accelData":"0.20","speedData":"33"},
{"time": "450579","gpsData":"$GPRMC,080039.800,A,3725.8931,N,12211.1052,W,20.29,336.23,020513,,,A*4A","accelData":"0.23","speedData":"31"},
{"time": "450974","gpsData":"$GPRMC,080040.200,A,3725.8953,N,12211.1066,W,20.32,335.62,020513,,,A*41","accelData":"0.24","speedData":"28"},
{"time": "451376","gpsData":"$GPRMC,080040.600,A,3725.8974,N,12211.1080,W,19.89,334.75,020513,,,A*45","accelData":"0.21","speedData":"25"},
{"time": "451774","gpsData":"$GPRMC,080041.000,A,3725.8994,N,12211.1093,W,19.32,334.10,020513,,,A*4D","accelData":"0.17","speedData":"25"},
{"time": "452172","gpsData":"$GPRMC,080041.400,A,3725.9013,N,12211.1106,W,18.77,333.15,020513,,,A*41","accelData":"0.11","speedData":"22"},
{"time": "452568","gpsData":"$GPRMC,080041.800,A,3725.9031,N,12211.1123,W,18.39,330.75,020513,,,A*45","accelData":"0.09","speedData":"19"},
{"time": "452967","gpsData":"$GPRMC,080042.200,A,3725.9048,N,12211.1138,W,17.55,326.52,020513,,,A*4F","accelData":"0.08","speedData":"17"},
{"time": "453366","gpsData":"$GPRMC,080042.600,A,3725.9066,N,12211.1144,W,16.29,325.15,020513,,,A*46","accelData":"0.05","speedData":"16"},
{"time": "453762","gpsData":"$GPRMC,080043.000,A,3725.9082,N,12211.1151,W,15.17,325.06,020513,,,A*43","accelData":"0.03","speedData":"15"},
{"time": "454161","gpsData":"$GPRMC,080043.400,A,3725.9093,N,12211.1151,W,13.80,325.47,020513,,,A*4A","accelData":"0.01","speedData":"14"},
{"time": "454560","gpsData":"$GPRMC,080043.800,A,3725.9105,N,12211.1157,W,12.86,325.31,020513,,,A*48","accelData":"0.04","speedData":"14"},
{"time": "454956","gpsData":"$GPRMC,080044.200,A,3725.9116,N,12211.1165,W,12.18,324.70,020513,,,A*45","accelData":"0.08","speedData":"13"},
{"time": "455355","gpsData":"$GPRMC,080044.600,A,3725.9125,N,12211.1174,W,11.07,323.18,020513,,,A*45","accelData":"0.11","speedData":"11"},
{"time": "455754","gpsData":"$GPRMC,080045.000,A,3725.9134,N,12211.1182,W,10.30,321.81,020513,,,A*4C","accelData":"0.04","speedData":"11"},
{"time": "456150","gpsData":"$GPRMC,080045.400,A,3725.9143,N,12211.1191,W,9.74,320.57,020513,,,A*78","accelData":"0.01","speedData":"10"},
{"time": "456549","gpsData":"$GPRMC,080045.800,A,3725.9150,N,12211.1198,W,9.20,319.10,020513,,,A*77","accelData":"0.00","speedData":"9"},
{"time": "456944","gpsData":"$GPRMC,080046.200,A,3725.9156,N,12211.1203,W,8.57,317.94,020513,,,A*7A","accelData":"-0.04","speedData":"9"},
{"time": "457344","gpsData":"$GPRMC,080046.600,A,3725.9161,N,12211.1206,W,7.83,317.75,020513,,,A*76","accelData":"-0.11","speedData":"9"},
{"time": "457743","gpsData":"$GPRMC,080047.000,A,3725.9168,N,12211.1210,W,7.61,319.81,020513,,,A*76","accelData":"-0.13","speedData":"9"},
{"time": "458142","gpsData":"$GPRMC,080047.400,A,3725.9174,N,12211.1213,W,7.26,322.10,020513,,,A*7F","accelData":"-0.12","speedData":"11"},
{"time": "458537","gpsData":"$GPRMC,080047.800,A,3725.9181,N,12211.1220,W,7.39,322.81,020513,,,A*7F","accelData":"-0.12","speedData":"13"},
{"time": "458937","gpsData":"$GPRMC,080048.200,A,3725.9188,N,12211.1226,W,7.51,322.76,020513,,,A*73","accelData":"-0.11","speedData":"15"},
{"time": "459332","gpsData":"$GPRMC,080048.600,A,3725.9196,N,12211.1233,W,8.04,325.49,020513,,,A*78","accelData":"-0.14","speedData":"17"},
{"time": "459731","gpsData":"$GPRMC,080049.000,A,3725.9205,N,12211.1236,W,8.06,332.30,020513,,,A*79","accelData":"-0.15","speedData":"17"},
{"time": "460131","gpsData":"$GPRMC,080049.400,A,3725.9216,N,12211.1239,W,8.65,340.18,020513,,,A*7A","accelData":"-0.18","speedData":"19"},
{"time": "460530","gpsData":"$GPRMC,080049.800,A,3725.9227,N,12211.1242,W,8.72,353.67,020513,,,A*74","accelData":"-0.20","speedData":"21"},
{"time": "460925","gpsData":"$GPRMC,080050.200,A,3725.9237,N,12211.1240,W,9.17,2.83,020513,,,A*7A","accelData":"-0.23","speedData":"24"},
{"time": "461326","gpsData":"$GPRMC,080050.600,A,3725.9248,N,12211.1233,W,10.04,15.02,020513,,,A*77","accelData":"-0.21","speedData":"26"},
{"time": "461724","gpsData":"$GPRMC,080051.000,A,3725.9260,N,12211.1228,W,10.49,16.91,020513,,,A*70","accelData":"-0.17","speedData":"29"},
{"time": "462119","gpsData":"$GPRMC,080051.400,A,3725.9272,N,12211.1220,W,11.19,20.51,020513,,,A*72","accelData":"-0.19","speedData":"29"},
{"time": "462519","gpsData":"$GPRMC,080051.800,A,3725.9285,N,12211.1213,W,11.54,21.37,020513,,,A*7E","accelData":"-0.17","speedData":"32"},
{"time": "462918","gpsData":"$GPRMC,080052.200,A,3725.9297,N,12211.1205,W,11.84,22.43,020513,,,A*7E","accelData":"-0.18","speedData":"34"},
{"time": "463318","gpsData":"$GPRMC,080052.600,A,3725.9310,N,12211.1195,W,12.24,24.04,020513,,,A*72","accelData":"-0.17","speedData":"37"},
{"time": "463717","gpsData":"$GPRMC,080053.000,A,3725.9323,N,12211.1185,W,12.69,25.96,020513,,,A*77","accelData":"-0.16","speedData":"39"},
{"time": "464112","gpsData":"$GPRMC,080053.400,A,3725.9335,N,12211.1173,W,13.17,27.85,020513,,,A*75","accelData":"-0.16","speedData":"41"},
{"time": "464512","gpsData":"$GPRMC,080053.800,A,3725.9348,N,12211.1159,W,13.67,29.62,020513,,,A*7B","accelData":"-0.12","speedData":"43"},
{"time": "464907","gpsData":"$GPRMC,080054.200,A,3725.9361,N,12211.1144,W,14.23,31.48,020513,,,A*77","accelData":"-0.11","speedData":"43"},
{"time": "465306","gpsData":"$GPRMC,080054.600,A,3725.9375,N,12211.1128,W,14.83,32.93,020513,,,A*73","accelData":"-0.09","speedData":"45"},
{"time": "465701","gpsData":"$GPRMC,080055.000,A,3725.9389,N,12211.1110,W,15.38,34.34,020513,,,A*76","accelData":"-0.10","speedData":"45"},
{"time": "466103","gpsData":"$GPRMC,080055.400,A,3725.9403,N,12211.1092,W,15.89,35.49,020513,,,A*7D","accelData":"-0.11","speedData":"47"},
{"time": "466499","gpsData":"$GPRMC,080055.800,A,3725.9416,N,12211.1073,W,16.31,36.48,020513,,,A*78","accelData":"-0.08","speedData":"47"},
{"time": "466903","gpsData":"$GPRMC,080056.200,A,3725.9430,N,12211.1054,W,16.69,37.41,020513,,,A*75","accelData":"-0.09","speedData":"47"},
{"time": "467295","gpsData":"$GPRMC,080056.600,A,3725.9444,N,12211.1033,W,17.13,38.67,020513,,,A*74","accelData":"-0.11","speedData":"49"},
{"time": "467693","gpsData":"$GPRMC,080057.000,A,3725.9457,N,12211.1011,W,17.53,39.96,020513,,,A*7A","accelData":"-0.10","speedData":"49"},
{"time": "468092","gpsData":"$GPRMC,080057.400,A,3725.9472,N,12211.0985,W,18.46,42.34,020513,,,A*73","accelData":"-0.11","speedData":"51"},
{"time": "468489","gpsData":"$GPRMC,080057.800,A,3725.9486,N,12211.0956,W,19.34,44.36,020513,,,A*7A","accelData":"-0.11","speedData":"53"},
{"time": "468887","gpsData":"$GPRMC,080058.200,A,3725.9500,N,12211.0928,W,20.14,45.88,020513,,,A*75","accelData":"-0.10","speedData":"53"},
{"time": "469286","gpsData":"$GPRMC,080058.600,A,3725.9515,N,12211.0895,W,21.32,47.84,020513,,,A*79","accelData":"-0.09","speedData":"53"},
{"time": "469682","gpsData":"$GPRMC,080059.000,A,3725.9530,N,12211.0867,W,21.66,48.49,020513,,,A*7B","accelData":"-0.07","speedData":"55"},
{"time": "470081","gpsData":"$GPRMC,080059.400,A,3725.9545,N,12211.0838,W,22.15,49.21,020513,,,A*7F","accelData":"-0.05","speedData":"55"},
{"time": "470480","gpsData":"$GPRMC,080059.800,A,3725.9561,N,12211.0806,W,22.80,49.87,020513,,,A*78","accelData":"-0.05","speedData":"57"},
{"time": "470876","gpsData":"$GPRMC,080100.200,A,3725.9579,N,12211.0772,W,23.71,50.53,020513,,,A*74","accelData":"-0.05","speedData":"56"},
{"time": "471275","gpsData":"$GPRMC,080100.600,A,3725.9598,N,12211.0737,W,24.58,51.18,020513,,,A*7C","accelData":"-0.05","speedData":"58"},
{"time": "471674","gpsData":"$GPRMC,080101.000,A,3725.9617,N,12211.0703,W,25.20,51.65,020513,,,A*7C","accelData":"-0.04","speedData":"58"},
{"time": "472070","gpsData":"$GPRMC,080101.400,A,3725.9637,N,12211.0668,W,25.95,52.18,020513,,,A*71","accelData":"-0.04","speedData":"57"},
{"time": "472469","gpsData":"$GPRMC,080101.800,A,3725.9656,N,12211.0635,W,26.35,52.36,020513,,,A*77","accelData":"-0.05","speedData":"57"},
{"time": "472864","gpsData":"$GPRMC,080102.200,A,3725.9676,N,12211.0604,W,26.70,52.33,020513,,,A*7A","accelData":"-0.05","speedData":"57"},
{"time": "473264","gpsData":"$GPRMC,080102.600,A,3725.9696,N,12211.0572,W,27.04,52.19,020513,,,A*78","accelData":"-0.04","speedData":"57"},
{"time": "473663","gpsData":"$GPRMC,080103.000,A,3725.9716,N,12211.0542,W,27.27,51.93,020513,,,A*75","accelData":"-0.02","speedData":"59"},
{"time": "474058","gpsData":"$GPRMC,080103.400,A,3725.9738,N,12211.0509,W,27.67,51.73,020513,,,A*78","accelData":"-0.02","speedData":"58"},
{"time": "474458","gpsData":"$GPRMC,080103.800,A,3725.9760,N,12211.0478,W,28.03,51.46,020513,,,A*75","accelData":"-0.01","speedData":"57"},
{"time": "474857","gpsData":"$GPRMC,080104.200,A,3725.9783,N,12211.0443,W,28.53,51.41,020513,,,A*7F","accelData":"-0.03","speedData":"59"},
{"time": "475256","gpsData":"$GPRMC,080104.600,A,3725.9807,N,12211.0410,W,28.82,51.02,020513,,,A*75","accelData":"-0.01","speedData":"58"},
{"time": "475656","gpsData":"$GPRMC,080105.000,A,3725.9831,N,12211.0376,W,29.14,50.79,020513,,,A*73","accelData":"-0.01","speedData":"58"},
{"time": "476051","gpsData":"$GPRMC,080105.400,A,3725.9855,N,12211.0341,W,29.52,50.57,020513,,,A*7F","accelData":"0.00","speedData":"57"},
{"time": "476450","gpsData":"$GPRMC,080105.800,A,3725.9881,N,12211.0307,W,29.78,50.15,020513,,,A*76","accelData":"0.01","speedData":"57"},
{"time": "476850","gpsData":"$GPRMC,080106.200,A,3725.9906,N,12211.0271,W,30.12,50.01,020513,,,A*70","accelData":"0.00","speedData":"57"},
{"time": "477245","gpsData":"$GPRMC,080106.600,A,3725.9932,N,12211.0235,W,30.45,49.89,020513,,,A*79","accelData":"0.00","speedData":"57"},
{"time": "477644","gpsData":"$GPRMC,080107.000,A,3725.9958,N,12211.0200,W,30.53,49.79,020513,,,A*7C","accelData":"-0.01","speedData":"57"},
{"time": "478044","gpsData":"$GPRMC,080107.400,A,3725.9983,N,12211.0164,W,30.64,49.83,020513,,,A*7E","accelData":"0.01","speedData":"57"},
{"time": "478439","gpsData":"$GPRMC,080107.800,A,3726.0010,N,12211.0130,W,30.76,49.49,020513,,,A*7F","accelData":"-0.01","speedData":"56"},
{"time": "478838","gpsData":"$GPRMC,080108.200,A,3726.0035,N,12211.0098,W,30.83,49.19,020513,,,A*71","accelData":"0.01","speedData":"55"},
{"time": "479238","gpsData":"$GPRMC,080108.600,A,3726.0054,N,12211.0064,W,30.66,49.50,020513,,,A*77","accelData":"0.01","speedData":"54"},
{"time": "479637","gpsData":"$GPRMC,080109.000,A,3726.0074,N,12211.0030,W,30.60,49.70,020513,,,A*77","accelData":"0.01","speedData":"54"},
{"time": "480036","gpsData":"$GPRMC,080109.400,A,3726.0095,N,12210.9994,W,30.57,49.97,020513,,,A*7E","accelData":"0.00","speedData":"53"},
{"time": "480432","gpsData":"$GPRMC,080109.800,A,3726.0117,N,12210.9956,W,30.54,50.24,020513,,,A*74","accelData":"0.00","speedData":"53"},
{"time": "480831","gpsData":"$GPRMC,080110.200,A,3726.0141,N,12210.9915,W,30.50,50.54,020513,,,A*71","accelData":"0.00","speedData":"53"},
{"time": "481229","gpsData":"$GPRMC,080110.600,A,3726.0164,N,12210.9876,W,30.42,50.88,020513,,,A*74","accelData":"-0.02","speedData":"52"},
{"time": "481630","gpsData":"$GPRMC,080111.000,A,3726.0184,N,12210.9837,W,30.32,51.38,020513,,,A*75","accelData":"-0.03","speedData":"51"},
{"time": "482024","gpsData":"$GPRMC,080111.400,A,3726.0202,N,12210.9802,W,30.13,51.82,020513,,,A*78","accelData":"-0.06","speedData":"53"},
{"time": "482419","gpsData":"$GPRMC,080111.800,A,3726.0221,N,12210.9767,W,30.07,52.02,020513,,,A*77","accelData":"-0.07","speedData":"52"},
{"time": "483219","gpsData":"$GPRMC,080112.600,A,3726.0263,N,12210.9693,W,30.05,51.83,020513,,,A*7E","accelData":"-0.07","speedData":"54"},
{"time": "483814","gpsData":"$GPRMC,080113.200,A,3726.0296,N,12210.9642,W,30.09,51.34,020513,,,A*7D","accelData":"-0.06","speedData":"53"},
{"time": "484212","gpsData":"$GPRMC,080113.600,A,3726.0318,N,12210.9606,W,30.10,51.52,020513,,,A*76","accelData":"-0.05","speedData":"53"},
{"time": "484612","gpsData":"$GPRMC,080114.000,A,3726.0340,N,12210.9569,W,30.14,51.47,020513,,,A*70","accelData":"-0.06","speedData":"53"},
{"time": "485010","gpsData":"$GPRMC,080114.400,A,3726.0362,N,12210.9533,W,30.22,51.47,020513,,,A*7E","accelData":"-0.06","speedData":"54"},
{"time": "485405","gpsData":"$GPRMC,080114.800,A,3726.0384,N,12210.9500,W,30.33,51.38,020513,,,A*72","accelData":"-0.03","speedData":"54"},
{"time": "485806","gpsData":"$GPRMC,080115.200,A,3726.0406,N,12210.9466,W,30.42,51.28,020513,,,A*72","accelData":"-0.02","speedData":"54"},
{"time": "486205","gpsData":"$GPRMC,080115.600,A,3726.0428,N,12210.9432,W,30.50,51.13,020513,,,A*70","accelData":"-0.01","speedData":"54"},
{"time": "486604","gpsData":"$GPRMC,080116.000,A,3726.0450,N,12210.9399,W,30.52,51.10,020513,,,A*7D","accelData":"-0.02","speedData":"54"},
{"time": "487000","gpsData":"$GPRMC,080116.400,A,3726.0471,N,12210.9366,W,30.50,50.95,020513,,,A*74","accelData":"0.00","speedData":"54"},
{"time": "487399","gpsData":"$GPRMC,080116.800,A,3726.0492,N,12210.9333,W,30.46,50.83,020513,,,A*75","accelData":"0.01","speedData":"54"},
{"time": "487802","gpsData":"$GPRMC,080117.200,A,3726.0514,N,12210.9300,W,30.44,50.74,020513,,,A*7B","accelData":"-0.01","speedData":"54"},
{"time": "488194","gpsData":"$GPRMC,080117.600,A,3726.0537,N,12210.9267,W,30.48,50.31,020513,,,A*73","accelData":"0.00","speedData":"53"},
{"time": "488593","gpsData":"$GPRMC,080118.000,A,3726.0561,N,12210.9234,W,30.50,49.92,020513,,,A*77","accelData":"-0.03","speedData":"53"},
{"time": "488992","gpsData":"$GPRMC,080118.400,A,3726.0584,N,12210.9200,W,30.50,49.86,020513,,,A*7A","accelData":"-0.02","speedData":"52"},
{"time": "489388","gpsData":"$GPRMC,080118.800,A,3726.0609,N,12210.9167,W,30.49,49.74,020513,,,A*77","accelData":"-0.02","speedData":"51"},
{"time": "489787","gpsData":"$GPRMC,080119.200,A,3726.0634,N,12210.9134,W,30.47,49.72,020513,,,A*7C","accelData":"-0.01","speedData":"51"},
{"time": "490182","gpsData":"$GPRMC,080119.600,A,3726.0658,N,12210.9100,W,30.45,49.86,020513,,,A*7C","accelData":"-0.01","speedData":"51"},
{"time": "490582","gpsData":"$GPRMC,080120.000,A,3726.0683,N,12210.9063,W,30.47,50.11,020513,,,A*76","accelData":"-0.02","speedData":"51"},
{"time": "490981","gpsData":"$GPRMC,080120.400,A,3726.0707,N,12210.9028,W,30.51,50.23,020513,,,A*76","accelData":"-0.03","speedData":"51"},
{"time": "491376","gpsData":"$GPRMC,080120.800,A,3726.0731,N,12210.8994,W,30.55,50.29,020513,,,A*7E","accelData":"-0.03","speedData":"51"},
{"time": "491776","gpsData":"$GPRMC,080121.200,A,3726.0756,N,12210.8961,W,30.54,50.38,020513,,,A*7F","accelData":"-0.05","speedData":"51"},
{"time": "492175","gpsData":"$GPRMC,080121.600,A,3726.0781,N,12210.8930,W,30.49,50.15,020513,,,A*76","accelData":"-0.05","speedData":"53"},
{"time": "492574","gpsData":"$GPRMC,080122.000,A,3726.0807,N,12210.8898,W,30.29,50.00,020513,,,A*73","accelData":"-0.05","speedData":"53"},
{"time": "492969","gpsData":"$GPRMC,080122.400,A,3726.0832,N,12210.8867,W,30.17,49.89,020513,,,A*75","accelData":"-0.07","speedData":"52"},
{"time": "493369","gpsData":"$GPRMC,080122.800,A,3726.0856,N,12210.8836,W,29.93,49.80,020513,,,A*72","accelData":"-0.06","speedData":"51"},
{"time": "493768","gpsData":"$GPRMC,080123.200,A,3726.0880,N,12210.8804,W,29.72,49.73,020513,,,A*70","accelData":"-0.06","speedData":"53"},
{"time": "494163","gpsData":"$GPRMC,080123.600,A,3726.0905,N,12210.8773,W,29.59,49.56,020513,,,A*79","accelData":"-0.06","speedData":"52"},
{"time": "494563","gpsData":"$GPRMC,080124.000,A,3726.0930,N,12210.8742,W,29.47,49.40,020513,,,A*74","accelData":"-0.07","speedData":"52"},
{"time": "494962","gpsData":"$GPRMC,080124.400,A,3726.0955,N,12210.8711,W,29.39,49.34,020513,,,A*7F","accelData":"-0.06","speedData":"52"},
{"time": "495357","gpsData":"$GPRMC,080124.800,A,3726.0979,N,12210.8679,W,29.38,49.30,020513,,,A*77","accelData":"-0.05","speedData":"52"},
{"time": "495757","gpsData":"$GPRMC,080125.200,A,3726.1004,N,12210.8648,W,29.42,49.09,020513,,,A*7B","accelData":"-0.06","speedData":"52"},
{"time": "496156","gpsData":"$GPRMC,080125.600,A,3726.1029,N,12210.8617,W,29.50,48.89,020513,,,A*70","accelData":"-0.07","speedData":"54"},
{"time": "496555","gpsData":"$GPRMC,080126.000,A,3726.1054,N,12210.8586,W,29.59,48.75,020513,,,A*7E","accelData":"-0.06","speedData":"53"},
{"time": "496950","gpsData":"$GPRMC,080126.400,A,3726.1078,N,12210.8554,W,29.70,48.75,020513,,,A*70","accelData":"-0.06","speedData":"53"},
{"time": "497350","gpsData":"$GPRMC,080126.800,A,3726.1102,N,12210.8522,W,29.79,48.72,020513,,,A*7F","accelData":"-0.03","speedData":"53"},
{"time": "497745","gpsData":"$GPRMC,080127.200,A,3726.1125,N,12210.8491,W,29.84,48.60,020513,,,A*79","accelData":"-0.04","speedData":"53"},
{"time": "498144","gpsData":"$GPRMC,080127.600,A,3726.1150,N,12210.8457,W,29.89,48.57,020513,,,A*7C","accelData":"-0.04","speedData":"53"},
{"time": "498541","gpsData":"$GPRMC,080128.000,A,3726.1175,N,12210.8424,W,29.98,48.45,020513,,,A*75","accelData":"-0.03","speedData":"53"},
{"time": "498938","gpsData":"$GPRMC,080128.400,A,3726.1201,N,12210.8392,W,30.07,47.99,020513,,,A*7B","accelData":"-0.04","speedData":"53"},
{"time": "499339","gpsData":"$GPRMC,080128.800,A,3726.1227,N,12210.8359,W,30.31,47.93,020513,,,A*7B","accelData":"-0.06","speedData":"52"},
{"time": "499737","gpsData":"$GPRMC,080129.200,A,3726.1252,N,12210.8326,W,30.37,47.96,020513,,,A*79","accelData":"-0.06","speedData":"52"},
{"time": "500135","gpsData":"$GPRMC,080129.600,A,3726.1278,N,12210.8295,W,30.39,47.55,020513,,,A*7D","accelData":"-0.07","speedData":"52"},
{"time": "500532","gpsData":"$GPRMC,080130.000,A,3726.1303,N,12210.8265,W,30.42,47.24,020513,,,A*7B","accelData":"-0.06","speedData":"54"},
{"time": "500931","gpsData":"$GPRMC,080130.400,A,3726.1326,N,12210.8236,W,30.42,47.30,020513,,,A*7B","accelData":"-0.06","speedData":"54"},
{"time": "501329","gpsData":"$GPRMC,080130.800,A,3726.1348,N,12210.8205,W,30.38,47.50,020513,,,A*74","accelData":"-0.07","speedData":"54"},
{"time": "501726","gpsData":"$GPRMC,080131.200,A,3726.1370,N,12210.8175,W,30.28,47.65,020513,,,A*77","accelData":"-0.06","speedData":"53"},
{"time": "502125","gpsData":"$GPRMC,080131.600,A,3726.1393,N,12210.8144,W,30.21,47.93,020513,,,A*7C","accelData":"-0.06","speedData":"53"},
{"time": "502524","gpsData":"$GPRMC,080132.000,A,3726.1415,N,12210.8114,W,30.20,48.12,020513,,,A*72","accelData":"-0.08","speedData":"53"},
{"time": "502924","gpsData":"$GPRMC,080132.400,A,3726.1438,N,12210.8085,W,30.16,48.12,020513,,,A*75","accelData":"-0.07","speedData":"53"},
{"time": "503319","gpsData":"$GPRMC,080132.800,A,3726.1460,N,12210.8055,W,30.10,48.22,020513,,,A*7C","accelData":"-0.06","speedData":"54"},
{"time": "503718","gpsData":"$GPRMC,080133.200,A,3726.1480,N,12210.8026,W,30.02,48.49,020513,,,A*73","accelData":"-0.06","speedData":"54"},
{"time": "504118","gpsData":"$GPRMC,080133.600,A,3726.1502,N,12210.7996,W,29.97,48.73,020513,,,A*7C","accelData":"-0.07","speedData":"54"},
{"time": "504513","gpsData":"$GPRMC,080134.000,A,3726.1524,N,12210.7967,W,30.02,48.84,020513,,,A*7B","accelData":"-0.07","speedData":"55"},
{"time": "504912","gpsData":"$GPRMC,080134.400,A,3726.1547,N,12210.7939,W,30.09,48.53,020513,,,A*70","accelData":"-0.06","speedData":"55"},
{"time": "505312","gpsData":"$GPRMC,080134.800,A,3726.1569,N,12210.7911,W,30.09,48.42,020513,,,A*7A","accelData":"-0.07","speedData":"54"},
{"time": "505707","gpsData":"$GPRMC,080135.200,A,3726.1592,N,12210.7882,W,30.01,48.34,020513,,,A*77","accelData":"-0.06","speedData":"56"},
{"time": "506106","gpsData":"$GPRMC,080135.600,A,3726.1617,N,12210.7851,W,30.03,48.12,020513,,,A*75","accelData":"-0.07","speedData":"56"},
{"time": "506506","gpsData":"$GPRMC,080136.000,A,3726.1642,N,12210.7818,W,30.23,48.10,020513,,,A*7D","accelData":"-0.06","speedData":"55"},
{"time": "506901","gpsData":"$GPRMC,080136.400,A,3726.1667,N,12210.7788,W,30.28,47.82,020513,,,A*77","accelData":"-0.07","speedData":"54"},
{"time": "507303","gpsData":"$GPRMC,080136.800,A,3726.1692,N,12210.7758,W,30.29,47.67,020513,,,A*76","accelData":"-0.07","speedData":"56"},
{"time": "507700","gpsData":"$GPRMC,080137.200,A,3726.1716,N,12210.7728,W,30.29,47.68,020513,,,A*78","accelData":"-0.07","speedData":"56"},
{"time": "508095","gpsData":"$GPRMC,080137.600,A,3726.1741,N,12210.7696,W,30.30,47.61,020513,,,A*7B","accelData":"-0.07","speedData":"55"},
{"time": "508498","gpsData":"$GPRMC,080138.000,A,3726.1766,N,12210.7662,W,30.33,47.51,020513,,,A*7C","accelData":"-0.06","speedData":"55"},
{"time": "508894","gpsData":"$GPRMC,080138.400,A,3726.1792,N,12210.7629,W,30.38,47.46,020513,,,A*71","accelData":"-0.07","speedData":"55"},
{"time": "509293","gpsData":"$GPRMC,080138.800,A,3726.1816,N,12210.7595,W,30.43,47.51,020513,,,A*70","accelData":"-0.07","speedData":"55"},
{"time": "509688","gpsData":"$GPRMC,080139.200,A,3726.1840,N,12210.7563,W,30.45,47.42,020513,,,A*75","accelData":"-0.07","speedData":"55"},
{"time": "510088","gpsData":"$GPRMC,080139.600,A,3726.1864,N,12210.7532,W,30.45,47.18,020513,,,A*7C","accelData":"-0.06","speedData":"57"},
{"time": "510487","gpsData":"$GPRMC,080140.000,A,3726.1887,N,12210.7500,W,30.43,47.17,020513,,,A*71","accelData":"-0.06","speedData":"57"},
{"time": "510883","gpsData":"$GPRMC,080140.400,A,3726.1909,N,12210.7471,W,30.36,47.34,020513,,,A*76","accelData":"-0.06","speedData":"56"},
{"time": "511281","gpsData":"$GPRMC,080140.800,A,3726.1930,N,12210.7443,W,30.15,47.45,020513,,,A*76","accelData":"-0.04","speedData":"56"},
{"time": "511680","gpsData":"$GPRMC,080141.200,A,3726.1950,N,12210.7414,W,30.03,47.75,020513,,,A*7D","accelData":"-0.04","speedData":"56"},
{"time": "512075","gpsData":"$GPRMC,080141.600,A,3726.1971,N,12210.7385,W,29.94,47.88,020513,,,A*71","accelData":"-0.03","speedData":"56"},
{"time": "512475","gpsData":"$GPRMC,080142.000,A,3726.1993,N,12210.7357,W,29.82,47.92,020513,,,A*7B","accelData":"-0.02","speedData":"55"},
{"time": "512875","gpsData":"$GPRMC,080142.400,A,3726.2015,N,12210.7328,W,29.72,48.10,020513,,,A*79","accelData":"-0.02","speedData":"54"},
{"time": "513274","gpsData":"$GPRMC,080142.800,A,3726.2036,N,12210.7298,W,29.62,48.24,020513,,,A*78","accelData":"-0.02","speedData":"54"},
{"time": "513669","gpsData":"$GPRMC,080143.200,A,3726.2059,N,12210.7268,W,29.54,48.29,020513,,,A*7D","accelData":"-0.05","speedData":"54"},
{"time": "514068","gpsData":"$GPRMC,080143.600,A,3726.2081,N,12210.7237,W,29.48,48.37,020513,,,A*74","accelData":"-0.06","speedData":"54"},
{"time": "514463","gpsData":"$GPRMC,080144.000,A,3726.2103,N,12210.7204,W,29.50,48.70,020513,,,A*74","accelData":"-0.08","speedData":"54"},
{"time": "514867","gpsData":"$GPRMC,080144.400,A,3726.2124,N,12210.7173,W,29.54,48.98,020513,,,A*74","accelData":"-0.09","speedData":"54"},
{"time": "515262","gpsData":"$GPRMC,080144.800,A,3726.2146,N,12210.7142,W,29.53,49.22,020513,,,A*79","accelData":"-0.07","speedData":"54"},
{"time": "515661","gpsData":"$GPRMC,080145.200,A,3726.2167,N,12210.7112,W,29.51,49.36,020513,,,A*73","accelData":"-0.07","speedData":"56"},
{"time": "516057","gpsData":"$GPRMC,080145.600,A,3726.2188,N,12210.7082,W,29.49,49.52,020513,,,A*75","accelData":"-0.08","speedData":"55"},
{"time": "516454","gpsData":"$GPRMC,080146.000,A,3726.2209,N,12210.7052,W,29.49,49.64,020513,,,A*72","accelData":"-0.09","speedData":"56"},
{"time": "516851","gpsData":"$GPRMC,080146.400,A,3726.2230,N,12210.7022,W,29.51,49.76,020513,,,A*71","accelData":"-0.10","speedData":"54"},
{"time": "517251","gpsData":"$GPRMC,080146.800,A,3726.2253,N,12210.6990,W,29.50,49.74,020513,,,A*7A","accelData":"-0.10","speedData":"56"},
{"time": "517650","gpsData":"$GPRMC,080147.200,A,3726.2277,N,12210.6959,W,29.50,49.58,020513,,,A*7C","accelData":"-0.09","speedData":"56"},
{"time": "518049","gpsData":"$GPRMC,080147.600,A,3726.2301,N,12210.6927,W,29.54,49.45,020513,,,A*79","accelData":"-0.10","speedData":"56"},
{"time": "518449","gpsData":"$GPRMC,080148.000,A,3726.2325,N,12210.6896,W,29.62,49.39,020513,,,A*73","accelData":"-0.10","speedData":"58"},
{"time": "518844","gpsData":"$GPRMC,080148.400,A,3726.2349,N,12210.6865,W,29.83,49.22,020513,,,A*74","accelData":"-0.11","speedData":"58"},
{"time": "519242","gpsData":"$GPRMC,080148.800,A,3726.2374,N,12210.6833,W,29.97,49.22,020513,,,A*70","accelData":"-0.09","speedData":"59"},
{"time": "519639","gpsData":"$GPRMC,080149.200,A,3726.2397,N,12210.6803,W,30.07,49.04,020513,,,A*70","accelData":"-0.08","speedData":"58"},
{"time": "520038","gpsData":"$GPRMC,080149.600,A,3726.2420,N,12210.6771,W,30.19,48.78,020513,,,A*70","accelData":"-0.09","speedData":"60"},
{"time": "520436","gpsData":"$GPRMC,080150.000,A,3726.2444,N,12210.6739,W,30.41,48.64,020513,,,A*70","accelData":"-0.07","speedData":"58"},
{"time": "520834","gpsData":"$GPRMC,080150.400,A,3726.2468,N,12210.6706,W,30.65,48.46,020513,,,A*70","accelData":"-0.04","speedData":"60"},
{"time": "521232","gpsData":"$GPRMC,080150.800,A,3726.2493,N,12210.6672,W,30.88,48.36,020513,,,A*7E","accelData":"-0.02","speedData":"59"},
{"time": "521631","gpsData":"$GPRMC,080151.200,A,3726.2518,N,12210.6639,W,31.14,48.23,020513,,,A*78","accelData":"-0.04","speedData":"59"},
{"time": "522027","gpsData":"$GPRMC,080151.600,A,3726.2544,N,12210.6606,W,31.24,48.00,020513,,,A*7B","accelData":"-0.07","speedData":"59"},
{"time": "522426","gpsData":"$GPRMC,080152.000,A,3726.2572,N,12210.6571,W,31.50,47.69,020513,,,A*7B","accelData":"-0.09","speedData":"59"},
{"time": "522825","gpsData":"$GPRMC,080152.400,A,3726.2600,N,12210.6539,W,31.91,47.23,020513,,,A*76","accelData":"-0.09","speedData":"59"},
{"time": "523225","gpsData":"$GPRMC,080152.800,A,3726.2628,N,12210.6506,W,32.17,46.76,020513,,,A*70","accelData":"-0.09","speedData":"59"},
{"time": "523620","gpsData":"$GPRMC,080153.200,A,3726.2656,N,12210.6481,W,32.23,45.91,020513,,,A*71","accelData":"-0.07","speedData":"59"},
{"time": "524019","gpsData":"$GPRMC,080153.600,A,3726.2689,N,12210.6445,W,32.72,45.32,020513,,,A*72","accelData":"-0.07","speedData":"59"},
{"time": "524414","gpsData":"$GPRMC,080154.000,A,3726.2720,N,12210.6408,W,32.95,45.13,020513,,,A*72","accelData":"-0.07","speedData":"59"},
{"time": "524814","gpsData":"$GPRMC,080154.400,A,3726.2750,N,12210.6371,W,33.17,45.08,020513,,,A*79","accelData":"-0.06","speedData":"59"},
{"time": "525213","gpsData":"$GPRMC,080154.800,A,3726.2781,N,12210.6334,W,33.26,44.86,020513,,,A*7D","accelData":"-0.06","speedData":"59"},
{"time": "525613","gpsData":"$GPRMC,080155.200,A,3726.2811,N,12210.6297,W,33.37,44.89,020513,,,A*77","accelData":"-0.07","speedData":"59"},
{"time": "526008","gpsData":"$GPRMC,080155.600,A,3726.2841,N,12210.6260,W,33.43,44.78,020513,,,A*73","accelData":"-0.06","speedData":"59"},
{"time": "526410","gpsData":"$GPRMC,080156.000,A,3726.2869,N,12210.6224,W,33.48,44.79,020513,,,A*76","accelData":"-0.05","speedData":"59"},
{"time": "526807","gpsData":"$GPRMC,080156.400,A,3726.2896,N,12210.6190,W,33.50,44.86,020513,,,A*77","accelData":"-0.06","speedData":"59"},
{"time": "527202","gpsData":"$GPRMC,080156.800,A,3726.2923,N,12210.6156,W,33.46,44.89,020513,,,A*76","accelData":"-0.06","speedData":"59"},
{"time": "527601","gpsData":"$GPRMC,080157.200,A,3726.2947,N,12210.6120,W,33.23,45.66,020513,,,A*7D","accelData":"-0.06","speedData":"59"},
{"time": "528000","gpsData":"$GPRMC,080157.600,A,3726.2970,N,12210.6083,W,33.15,46.24,020513,,,A*75","accelData":"-0.06","speedData":"59"},
{"time": "528399","gpsData":"$GPRMC,080158.000,A,3726.2994,N,12210.6046,W,33.13,46.82,020513,,,A*75","accelData":"-0.06","speedData":"59"},
{"time": "528794","gpsData":"$GPRMC,080158.400,A,3726.3017,N,12210.6004,W,33.16,47.58,020513,,,A*77","accelData":"-0.04","speedData":"59"},
{"time": "529193","gpsData":"$GPRMC,080158.800,A,3726.3040,N,12210.5968,W,33.16,47.95,020513,,,A*78","accelData":"-0.06","speedData":"59"},
{"time": "529593","gpsData":"$GPRMC,080159.200,A,3726.3062,N,12210.5932,W,32.95,48.39,020513,,,A*7F","accelData":"-0.07","speedData":"59"},
{"time": "529988","gpsData":"$GPRMC,080159.600,A,3726.3086,N,12210.5896,W,32.93,48.52,020513,,,A*75","accelData":"-0.04","speedData":"59"},
{"time": "530387","gpsData":"$GPRMC,080200.000,A,3726.3111,N,12210.5863,W,32.91,48.44,020513,,,A*7C","accelData":"-0.06","speedData":"59"},
{"time": "530787","gpsData":"$GPRMC,080200.400,A,3726.3137,N,12210.5829,W,32.89,48.38,020513,,,A*70","accelData":"-0.05","speedData":"59"},
{"time": "531182","gpsData":"$GPRMC,080200.800,A,3726.3162,N,12210.5795,W,32.91,48.31,020513,,,A*74","accelData":"-0.06","speedData":"59"},
{"time": "531581","gpsData":"$GPRMC,080201.200,A,3726.3190,N,12210.5760,W,33.16,47.99,020513,,,A*7B","accelData":"-0.06","speedData":"59"},
{"time": "531982","gpsData":"$GPRMC,080201.600,A,3726.3222,N,12210.5724,W,33.50,47.56,020513,,,A*74","accelData":"-0.06","speedData":"58"},
{"time": "532380","gpsData":"$GPRMC,080202.000,A,3726.3251,N,12210.5686,W,33.59,47.50,020513,,,A*73","accelData":"-0.05","speedData":"58"},
{"time": "532775","gpsData":"$GPRMC,080202.400,A,3726.3278,N,12210.5649,W,33.66,47.51,020513,,,A*72","accelData":"-0.06","speedData":"58"},
{"time": "533175","gpsData":"$GPRMC,080202.800,A,3726.3304,N,12210.5614,W,33.69,47.35,020513,,,A*71","accelData":"-0.06","speedData":"60"},
{"time": "533574","gpsData":"$GPRMC,080203.200,A,3726.3329,N,12210.5580,W,33.65,47.32,020513,,,A*70","accelData":"-0.04","speedData":"60"},
{"time": "533969","gpsData":"$GPRMC,080203.600,A,3726.3355,N,12210.5545,W,33.60,47.34,020513,,,A*75","accelData":"-0.05","speedData":"60"},
{"time": "534369","gpsData":"$GPRMC,080204.000,A,3726.3381,N,12210.5510,W,33.54,47.37,020513,,,A*79","accelData":"-0.06","speedData":"60"},
{"time": "534767","gpsData":"$GPRMC,080204.400,A,3726.3408,N,12210.5475,W,33.46,47.40,020513,,,A*7A","accelData":"-0.07","speedData":"59"},
{"time": "535163","gpsData":"$GPRMC,080204.800,A,3726.3434,N,12210.5440,W,33.39,47.49,020513,,,A*7E","accelData":"-0.07","speedData":"60"},
{"time": "535563","gpsData":"$GPRMC,080205.200,A,3726.3462,N,12210.5406,W,33.37,47.27,020513,,,A*72","accelData":"-0.06","speedData":"60"},
{"time": "535961","gpsData":"$GPRMC,080205.600,A,3726.3489,N,12210.5371,W,33.42,47.10,020513,,,A*72","accelData":"-0.06","speedData":"59"},
{"time": "536357","gpsData":"$GPRMC,080206.000,A,3726.3516,N,12210.5336,W,33.48,47.02,020513,,,A*7A","accelData":"-0.07","speedData":"60"},
{"time": "536757","gpsData":"$GPRMC,080206.400,A,3726.3540,N,12210.5299,W,33.51,47.35,020513,,,A*75","accelData":"-0.07","speedData":"60"},
{"time": "537156","gpsData":"$GPRMC,080206.800,A,3726.3565,N,12210.5261,W,33.50,47.68,020513,,,A*70","accelData":"-0.08","speedData":"60"},
{"time": "537551","gpsData":"$GPRMC,080207.200,A,3726.3588,N,12210.5223,W,33.48,48.16,020513,,,A*71","accelData":"-0.08","speedData":"60"},
{"time": "537952","gpsData":"$GPRMC,080207.600,A,3726.3612,N,12210.5184,W,33.49,48.62,020513,,,A*79","accelData":"-0.07","speedData":"60"},
{"time": "538353","gpsData":"$GPRMC,080208.000,A,3726.3636,N,12210.5146,W,33.50,48.82,020513,,,A*7E","accelData":"-0.08","speedData":"61"},
{"time": "538748","gpsData":"$GPRMC,080208.400,A,3726.3661,N,12210.5110,W,33.50,48.87,020513,,,A*7E","accelData":"-0.06","speedData":"61"},
{"time": "539145","gpsData":"$GPRMC,080208.800,A,3726.3687,N,12210.5072,W,33.56,48.92,020513,,,A*7D","accelData":"-0.04","speedData":"61"},
{"time": "539543","gpsData":"$GPRMC,080209.200,A,3726.3713,N,12210.5034,W,33.76,48.95,020513,,,A*7D","accelData":"-0.02","speedData":"61"},
{"time": "539942","gpsData":"$GPRMC,080209.600,A,3726.3738,N,12210.4999,W,33.83,48.81,020513,,,A*70","accelData":"-0.02","speedData":"60"},
{"time": "540338","gpsData":"$GPRMC,080210.000,A,3726.3764,N,12210.4964,W,33.92,48.78,020513,,,A*73","accelData":"-0.02","speedData":"60"},
{"time": "540737","gpsData":"$GPRMC,080210.400,A,3726.3788,N,12210.4931,W,33.97,48.64,020513,,,A*7D","accelData":"-0.03","speedData":"60"},
{"time": "541133","gpsData":"$GPRMC,080210.800,A,3726.3813,N,12210.4900,W,33.97,48.39,020513,,,A*76","accelData":"-0.02","speedData":"60"},
{"time": "541533","gpsData":"$GPRMC,080211.200,A,3726.3836,N,12210.4872,W,33.89,48.06,020513,,,A*7D","accelData":"-0.03","speedData":"59"},
{"time": "541931","gpsData":"$GPRMC,080211.600,A,3726.3861,N,12210.4845,W,33.70,47.71,020513,,,A*76","accelData":"-0.03","speedData":"59"},
{"time": "542330","gpsData":"$GPRMC,080212.000,A,3726.3885,N,12210.4818,W,33.37,47.50,020513,,,A*71","accelData":"-0.01","speedData":"58"},
{"time": "542730","gpsData":"$GPRMC,080212.400,A,3726.3913,N,12210.4787,W,33.24,47.11,020513,,,A*75","accelData":"-0.04","speedData":"57"},
{"time": "543125","gpsData":"$GPRMC,080212.800,A,3726.3941,N,12210.4756,W,33.01,46.68,020513,,,A*7A","accelData":"-0.02","speedData":"57"},
{"time": "543525","gpsData":"$GPRMC,080213.200,A,3726.3970,N,12210.4729,W,32.82,45.77,020513,,,A*7C","accelData":"-0.02","speedData":"57"},
{"time": "543924","gpsData":"$GPRMC,080213.600,A,3726.3999,N,12210.4703,W,32.56,44.68,020513,,,A*71","accelData":"-0.02","speedData":"56"},
{"time": "544323","gpsData":"$GPRMC,080214.000,A,3726.4029,N,12210.4672,W,32.46,44.27,020513,,,A*78","accelData":"-0.03","speedData":"56"},
{"time": "544718","gpsData":"$GPRMC,080214.400,A,3726.4059,N,12210.4641,W,32.08,43.77,020513,,,A*73","accelData":"-0.05","speedData":"55"},
{"time": "545118","gpsData":"$GPRMC,080214.800,A,3726.4090,N,12210.4612,W,31.78,43.21,020513,,,A*7B","accelData":"-0.07","speedData":"54"},
{"time": "545517","gpsData":"$GPRMC,080215.200,A,3726.4120,N,12210.4580,W,31.54,42.70,020513,,,A*79","accelData":"-0.06","speedData":"54"},
{"time": "545912","gpsData":"$GPRMC,080215.600,A,3726.4148,N,12210.4549,W,31.17,42.29,020513,,,A*7D","accelData":"-0.07","speedData":"56"},
{"time": "546312","gpsData":"$GPRMC,080216.000,A,3726.4175,N,12210.4520,W,31.09,42.05,020513,,,A*78","accelData":"-0.09","speedData":"55"},
{"time": "546711","gpsData":"$GPRMC,080216.400,A,3726.4202,N,12210.4492,W,30.99,41.74,020513,,,A*7A","accelData":"-0.07","speedData":"54"},
{"time": "547110","gpsData":"$GPRMC,080216.800,A,3726.4230,N,12210.4464,W,30.93,41.55,020513,,,A*77","accelData":"-0.07","speedData":"56"},
{"time": "547510","gpsData":"$GPRMC,080217.200,A,3726.4258,N,12210.4439,W,30.72,40.97,020513,,,A*7A","accelData":"-0.06","speedData":"55"},
{"time": "547905","gpsData":"$GPRMC,080217.600,A,3726.4287,N,12210.4420,W,30.33,39.68,020513,,,A*7F","accelData":"-0.07","speedData":"54"},
{"time": "548304","gpsData":"$GPRMC,080218.000,A,3726.4317,N,12210.4400,W,30.15,38.28,020513,,,A*7D","accelData":"-0.07","speedData":"54"},
{"time": "548700","gpsData":"$GPRMC,080218.400,A,3726.4346,N,12210.4380,W,29.87,36.78,020513,,,A*7A","accelData":"-0.07","speedData":"56"},
{"time": "549099","gpsData":"$GPRMC,080218.800,A,3726.4369,N,12210.4361,W,29.64,35.26,020513,,,A*71","accelData":"-0.09","speedData":"55"},
{"time": "549498","gpsData":"$GPRMC,080219.200,A,3726.4394,N,12210.4344,W,29.45,33.59,020513,,,A*72","accelData":"-0.08","speedData":"55"},
{"time": "549894","gpsData":"$GPRMC,080219.600,A,3726.4427,N,12210.4335,W,29.45,31.49,020513,,,A*7C","accelData":"-0.06","speedData":"55"},
{"time": "550297","gpsData":"$GPRMC,080220.000,A,3726.4461,N,12210.4327,W,29.41,29.23,020513,,,A*70","accelData":"-0.07","speedData":"55"},
{"time": "550692","gpsData":"$GPRMC,080220.400,A,3726.4496,N,12210.4320,W,28.85,26.67,020513,,,A*7D","accelData":"-0.09","speedData":"57"},
{"time": "551088","gpsData":"$GPRMC,080220.800,A,3726.4533,N,12210.4320,W,28.71,23.71,020513,,,A*76","accelData":"-0.09","speedData":"57"},
{"time": "551487","gpsData":"$GPRMC,080221.200,A,3726.4570,N,12210.4318,W,28.59,22.02,020513,,,A*7E","accelData":"-0.09","speedData":"57"},
{"time": "551886","gpsData":"$GPRMC,080221.600,A,3726.4605,N,12210.4311,W,28.84,20.73,020513,,,A*76","accelData":"-0.09","speedData":"57"},
{"time": "552282","gpsData":"$GPRMC,080222.000,A,3726.4640,N,12210.4303,W,29.26,20.02,020513,,,A*7E","accelData":"-0.08","speedData":"56"},
{"time": "552681","gpsData":"$GPRMC,080222.400,A,3726.4676,N,12210.4296,W,29.30,18.79,020513,,,A*72","accelData":"-0.07","speedData":"56"},
{"time": "553078","gpsData":"$GPRMC,080222.800,A,3726.4712,N,12210.4289,W,29.30,17.85,020513,,,A*7F","accelData":"-0.08","speedData":"57"},
{"time": "553479","gpsData":"$GPRMC,080223.200,A,3726.4747,N,12210.4283,W,29.27,16.45,020513,,,A*75","accelData":"-0.09","speedData":"57"},
{"time": "553878","gpsData":"$GPRMC,080223.600,A,3726.4782,N,12210.4278,W,29.20,15.03,020513,,,A*7A","accelData":"-0.09","speedData":"56"},
{"time": "554274","gpsData":"$GPRMC,080224.000,A,3726.4818,N,12210.4274,W,29.13,14.15,020513,,,A*7D","accelData":"-0.06","speedData":"56"},
{"time": "554673","gpsData":"$GPRMC,080224.400,A,3726.4853,N,12210.4269,W,29.14,13.52,020513,,,A*79","accelData":"-0.05","speedData":"56"},
{"time": "555068","gpsData":"$GPRMC,080224.800,A,3726.4891,N,12210.4263,W,29.40,12.72,020513,,,A*73","accelData":"-0.04","speedData":"56"},
{"time": "555467","gpsData":"$GPRMC,080225.200,A,3726.4928,N,12210.4256,W,29.64,12.27,020513,,,A*7B","accelData":"-0.02","speedData":"55"},
{"time": "555866","gpsData":"$GPRMC,080225.600,A,3726.4964,N,12210.4250,W,29.76,11.81,020513,,,A*7D","accelData":"-0.02","speedData":"56"},
{"time": "556263","gpsData":"$GPRMC,080226.000,A,3726.5000,N,12210.4245,W,29.88,11.15,020513,,,A*7A","accelData":"-0.02","speedData":"55"},
{"time": "556661","gpsData":"$GPRMC,080226.400,A,3726.5036,N,12210.4241,W,29.95,10.41,020513,,,A*73","accelData":"-0.01","speedData":"55"},
{"time": "557061","gpsData":"$GPRMC,080226.800,A,3726.5072,N,12210.4238,W,29.98,9.71,020513,,,A*47","accelData":"-0.07","speedData":"54"},
{"time": "557456","gpsData":"$GPRMC,080227.200,A,3726.5108,N,12210.4234,W,29.98,9.33,020513,,,A*4A","accelData":"-0.08","speedData":"54"},
{"time": "557855","gpsData":"$GPRMC,080227.600,A,3726.5144,N,12210.4231,W,29.96,9.31,020513,,,A*4F","accelData":"-0.07","speedData":"54"},
{"time": "558258","gpsData":"$GPRMC,080228.000,A,3726.5179,N,12210.4226,W,30.00,9.48,020513,,,A*47","accelData":"-0.09","speedData":"54"},
{"time": "558650","gpsData":"$GPRMC,080228.400,A,3726.5217,N,12210.4222,W,30.31,9.71,020513,,,A*44","accelData":"-0.09","speedData":"54"},
{"time": "559049","gpsData":"$GPRMC,080228.800,A,3726.5253,N,12210.4216,W,30.49,9.93,020513,,,A*4C","accelData":"-0.09","speedData":"54"},
{"time": "559444","gpsData":"$GPRMC,080229.200,A,3726.5290,N,12210.4211,W,30.55,9.92,020513,,,A*43","accelData":"-0.07","speedData":"54"},
{"time": "559844","gpsData":"$GPRMC,080229.600,A,3726.5325,N,12210.4208,W,30.56,9.80,020513,,,A*40","accelData":"-0.10","speedData":"56"},
{"time": "560243","gpsData":"$GPRMC,080230.000,A,3726.5358,N,12210.4206,W,30.52,9.70,020513,,,A*41","accelData":"-0.11","speedData":"55"},
{"time": "560643","gpsData":"$GPRMC,080230.400,A,3726.5393,N,12210.4204,W,30.52,9.66,020513,,,A*47","accelData":"-0.10","speedData":"54"},
{"time": "561038","gpsData":"$GPRMC,080230.800,A,3726.5428,N,12210.4200,W,30.79,9.73,020513,,,A*45","accelData":"-0.08","speedData":"54"},
{"time": "561437","gpsData":"$GPRMC,080231.200,A,3726.5463,N,12210.4197,W,30.88,9.54,020513,,,A*47","accelData":"-0.09","speedData":"54"},
{"time": "561832","gpsData":"$GPRMC,080231.600,A,3726.5498,N,12210.4193,W,30.96,9.55,020513,,,A*4D","accelData":"-0.09","speedData":"56"},
{"time": "562232","gpsData":"$GPRMC,080232.000,A,3726.5533,N,12210.4189,W,31.21,9.63,020513,,,A*4B","accelData":"-0.08","speedData":"55"},
{"time": "562631","gpsData":"$GPRMC,080232.400,A,3726.5569,N,12210.4183,W,31.26,9.95,020513,,,A*44","accelData":"-0.10","speedData":"54"},
{"time": "563031","gpsData":"$GPRMC,080232.800,A,3726.5606,N,12210.4176,W,31.36,10.22,020513,,,A*7D","accelData":"-0.09","speedData":"54"},
{"time": "563430","gpsData":"$GPRMC,080233.200,A,3726.5643,N,12210.4166,W,31.43,10.57,020513,,,A*76","accelData":"-0.09","speedData":"56"},
{"time": "563825","gpsData":"$GPRMC,080233.600,A,3726.5682,N,12210.4158,W,31.52,10.60,020513,,,A*76","accelData":"-0.11","speedData":"55"},
{"time": "564220","gpsData":"$GPRMC,080234.000,A,3726.5719,N,12210.4150,W,31.58,10.23,020513,,,A*71","accelData":"-0.08","speedData":"55"},
{"time": "564620","gpsData":"$GPRMC,080234.400,A,3726.5755,N,12210.4145,W,31.53,9.80,020513,,,A*43","accelData":"-0.09","speedData":"54"},
{"time": "565019","gpsData":"$GPRMC,080234.800,A,3726.5791,N,12210.4138,W,31.26,9.68,020513,,,A*49","accelData":"-0.06","speedData":"54"},
{"time": "565414","gpsData":"$GPRMC,080235.200,A,3726.5826,N,12210.4133,W,31.02,9.44,020513,,,A*42","accelData":"-0.07","speedData":"54"},
{"time": "565814","gpsData":"$GPRMC,080235.600,A,3726.5862,N,12210.4127,W,30.83,9.28,020513,,,A*41","accelData":"-0.05","speedData":"54"},
{"time": "566213","gpsData":"$GPRMC,080236.000,A,3726.5898,N,12210.4121,W,30.80,9.42,020513,,,A*48","accelData":"-0.05","speedData":"53"},
{"time": "566611","gpsData":"$GPRMC,080236.400,A,3726.5935,N,12210.4115,W,30.81,9.47,020513,,,A*49","accelData":"-0.07","speedData":"53"},
{"time": "567007","gpsData":"$GPRMC,080236.800,A,3726.5970,N,12210.4109,W,30.79,9.51,020513,,,A*49","accelData":"-0.07","speedData":"52"},
{"time": "567406","gpsData":"$GPRMC,080237.200,A,3726.6005,N,12210.4104,W,30.73,9.49,020513,,,A*44","accelData":"-0.07","speedData":"52"},
{"time": "567805","gpsData":"$GPRMC,080237.600,A,3726.6037,N,12210.4097,W,30.52,9.66,020513,,,A*44","accelData":"-0.08","speedData":"52"},
{"time": "568205","gpsData":"$GPRMC,080238.000,A,3726.6070,N,12210.4091,W,30.32,9.73,020513,,,A*4A","accelData":"-0.09","speedData":"51"},
{"time": "568600","gpsData":"$GPRMC,080238.400,A,3726.6102,N,12210.4086,W,30.20,9.66,020513,,,A*4B","accelData":"-0.08","speedData":"51"},
{"time": "569000","gpsData":"$GPRMC,080238.800,A,3726.6133,N,12210.4081,W,30.06,9.51,020513,,,A*42","accelData":"-0.09","speedData":"51"},
{"time": "569396","gpsData":"$GPRMC,080239.200,A,3726.6163,N,12210.4076,W,29.80,9.56,020513,,,A*45","accelData":"-0.09","speedData":"51"},
{"time": "569794","gpsData":"$GPRMC,080239.600,A,3726.6193,N,12210.4069,W,29.59,9.88,020513,,,A*47","accelData":"-0.08","speedData":"53"},
{"time": "570193","gpsData":"$GPRMC,080240.000,A,3726.6225,N,12210.4061,W,29.54,10.35,020513,,,A*7A","accelData":"-0.09","speedData":"52"},
{"time": "570593","gpsData":"$GPRMC,080240.400,A,3726.6257,N,12210.4054,W,29.51,10.51,020513,,,A*7A","accelData":"-0.09","speedData":"51"},
{"time": "570992","gpsData":"$GPRMC,080240.800,A,3726.6289,N,12210.4048,W,29.47,10.43,020513,,,A*7C","accelData":"-0.09","speedData":"53"},
{"time": "571392","gpsData":"$GPRMC,080241.200,A,3726.6321,N,12210.4042,W,29.40,10.43,020513,,,A*79","accelData":"-0.10","speedData":"52"},
{"time": "571786","gpsData":"$GPRMC,080241.600,A,3726.6352,N,12210.4035,W,29.31,10.48,020513,,,A*74","accelData":"-0.10","speedData":"52"},
{"time": "572182","gpsData":"$GPRMC,080242.000,A,3726.6381,N,12210.4029,W,29.21,10.76,020513,,,A*7E","accelData":"-0.11","speedData":"51"},
{"time": "572581","gpsData":"$GPRMC,080242.400,A,3726.6410,N,12210.4020,W,29.19,12.04,020513,,,A*70","accelData":"-0.09","speedData":"53"},
{"time": "572982","gpsData":"$GPRMC,080242.800,A,3726.6439,N,12210.4012,W,29.41,13.24,020513,,,A*78","accelData":"-0.09","speedData":"52"},
{"time": "573379","gpsData":"$GPRMC,080243.200,A,3726.6469,N,12210.4009,W,29.48,14.28,020513,,,A*7E","accelData":"-0.11","speedData":"52"},
{"time": "573775","gpsData":"$GPRMC,080243.600,A,3726.6501,N,12210.4007,W,29.53,14.73,020513,,,A*7F","accelData":"-0.08","speedData":"52"},
{"time": "574175","gpsData":"$GPRMC,080244.000,A,3726.6531,N,12210.4003,W,29.52,15.21,020513,,,A*7E","accelData":"-0.08","speedData":"52"},
{"time": "574574","gpsData":"$GPRMC,080244.400,A,3726.6555,N,12210.3988,W,29.49,16.82,020513,,,A*75","accelData":"-0.07","speedData":"52"},
{"time": "574973","gpsData":"$GPRMC,080244.800,A,3726.6577,N,12210.3972,W,29.56,17.79,020513,,,A*77","accelData":"-0.07","speedData":"54"},
{"time": "575369","gpsData":"$GPRMC,080245.200,A,3726.6594,N,12210.3955,W,29.97,19.02,020513,,,A*7B","accelData":"-0.07","speedData":"53"},
{"time": "575768","gpsData":"$GPRMC,080245.600,A,3726.6617,N,12210.3940,W,30.04,20.43,020513,,,A*7E","accelData":"-0.05","speedData":"53"},
{"time": "576167","gpsData":"$GPRMC,080246.000,A,3726.6642,N,12210.3925,W,30.13,21.49,020513,,,A*75","accelData":"-0.04","speedData":"53"},
{"time": "576563","gpsData":"$GPRMC,080246.400,A,3726.6670,N,12210.3908,W,30.23,22.49,020513,,,A*7F","accelData":"-0.04","speedData":"52"},
{"time": "576962","gpsData":"$GPRMC,080246.800,A,3726.6700,N,12210.3893,W,30.48,23.19,020513,,,A*7F","accelData":"-0.04","speedData":"52"},
{"time": "577361","gpsData":"$GPRMC,080247.200,A,3726.6730,N,12210.3876,W,30.56,23.69,020513,,,A*74","accelData":"-0.03","speedData":"52"},
{"time": "577757","gpsData":"$GPRMC,080247.600,A,3726.6760,N,12210.3859,W,30.26,23.87,020513,,,A*7F","accelData":"-0.04","speedData":"54"},
{"time": "578156","gpsData":"$GPRMC,080248.000,A,3726.6788,N,12210.3842,W,30.13,24.07,020513,,,A*73","accelData":"-0.03","speedData":"54"},
{"time": "578555","gpsData":"$GPRMC,080248.400,A,3726.6821,N,12210.3821,W,30.09,24.35,020513,,,A*74","accelData":"-0.02","speedData":"54"},
{"time": "578955","gpsData":"$GPRMC,080248.800,A,3726.6853,N,12210.3801,W,30.10,24.44,020513,,,A*71","accelData":"-0.03","speedData":"54"},
{"time": "579350","gpsData":"$GPRMC,080249.200,A,3726.6884,N,12210.3782,W,30.16,24.25,020513,,,A*75","accelData":"-0.02","speedData":"56"},
{"time": "579748","gpsData":"$GPRMC,080249.600,A,3726.6915,N,12210.3764,W,30.49,24.71,020513,,,A*7B","accelData":"-0.02","speedData":"55"},
{"time": "580148","gpsData":"$GPRMC,080250.000,A,3726.6945,N,12210.3744,W,30.75,25.63,020513,,,A*7F","accelData":"0.00","speedData":"55"},
{"time": "580543","gpsData":"$GPRMC,080250.400,A,3726.6974,N,12210.3724,W,30.99,26.62,020513,,,A*7F","accelData":"-0.01","speedData":"54"},
{"time": "580942","gpsData":"$GPRMC,080250.800,A,3726.6999,N,12210.3703,W,31.07,27.52,020513,,,A*71","accelData":"0.00","speedData":"56"},
{"time": "581342","gpsData":"$GPRMC,080251.200,A,3726.7026,N,12210.3679,W,31.31,28.52,020513,,,A*70","accelData":"-0.01","speedData":"55"},
{"time": "581738","gpsData":"$GPRMC,080251.600,A,3726.7055,N,12210.3655,W,31.72,29.41,020513,,,A*7A","accelData":"-0.01","speedData":"54"},
{"time": "582136","gpsData":"$GPRMC,080252.000,A,3726.7083,N,12210.3630,W,31.80,30.18,020513,,,A*7E","accelData":"0.00","speedData":"56"},
{"time": "582536","gpsData":"$GPRMC,080252.400,A,3726.7112,N,12210.3603,W,32.12,31.18,020513,,,A*7A","accelData":"0.02","speedData":"56"},
{"time": "582932","gpsData":"$GPRMC,080252.800,A,3726.7140,N,12210.3575,W,32.22,31.80,020513,,,A*71","accelData":"0.04","speedData":"56"},
{"time": "583330","gpsData":"$GPRMC,080253.200,A,3726.7169,N,12210.3548,W,32.17,32.40,020513,,,A*76","accelData":"0.02","speedData":"55"},
{"time": "583730","gpsData":"$GPRMC,080253.600,A,3726.7196,N,12210.3519,W,32.11,33.23,020513,,,A*74","accelData":"0.04","speedData":"54"},
{"time": "584126","gpsData":"$GPRMC,080254.000,A,3726.7224,N,12210.3489,W,32.01,34.19,020513,,,A*78","accelData":"0.03","speedData":"54"},
{"time": "584524","gpsData":"$GPRMC,080254.400,A,3726.7253,N,12210.3462,W,31.95,35.06,020513,,,A*78","accelData":"0.04","speedData":"54"},
{"time": "584924","gpsData":"$GPRMC,080254.800,A,3726.7282,N,12210.3435,W,31.86,35.67,020513,,,A*7F","accelData":"0.03","speedData":"53"},
{"time": "585319","gpsData":"$GPRMC,080255.200,A,3726.7310,N,12210.3407,W,31.79,36.42,020513,,,A*7B","accelData":"0.03","speedData":"53"},
{"time": "585718","gpsData":"$GPRMC,080255.600,A,3726.7339,N,12210.3378,W,31.77,37.11,020513,,,A*72","accelData":"0.03","speedData":"53"},
{"time": "586118","gpsData":"$GPRMC,080256.000,A,3726.7368,N,12210.3350,W,31.75,37.57,020513,,,A*79","accelData":"0.03","speedData":"52"},
{"time": "586513","gpsData":"$GPRMC,080256.400,A,3726.7396,N,12210.3321,W,31.38,37.91,020513,,,A*79","accelData":"0.02","speedData":"51"},
{"time": "586912","gpsData":"$GPRMC,080256.800,A,3726.7424,N,12210.3293,W,31.13,38.25,020513,,,A*7A","accelData":"0.03","speedData":"51"},
{"time": "587312","gpsData":"$GPRMC,080257.200,A,3726.7448,N,12210.3263,W,30.68,39.43,020513,,,A*78","accelData":"0.07","speedData":"50"},
